{"type":"Topology","objects":{"IHC_Significant_Locations":{"type":"GeometryCollection","geometries":[{"type":"Point","coordinates":[-82.953611,36.964722],"properties":{"Name":"Benham Coal Works","Address":"","City":"Benham","State":"KY","Zip":"","Country":"USA","Latitude":"36.964722","Longitude":" -82.953611","Significance":"IHC Company Town","URL":"https://farmanddairy.com/columns/the-town-international-harvester-built/375249.html"}},{"type":"Point","coordinates":[-87.6229707,41.8896067],"properties":{"Name":"IHC Headquarters","Address":"401 N. Michigan Avenue","City":"Chicago","State":" IL","Zip":"","Country":"USA","Latitude":"41.8896067","Longitude":"-87.6229707","Significance":"Coporate Headquarters","URL":"https://en.wikipedia.org/wiki/Equitable_Building_(Chicago)"}},{"type":"Point","coordinates":[-87.926972,41.75875],"properties":{"Name":"Burr Ridge Experimental Farm","Address":" 15W400 Harvester Drive","City":"Burr Ridge","State":"IL","Zip":"60527","Country":"USA","Latitude":"41.758750","Longitude":"-87.926972","Significance":"Experimental Farm","URL":"https://octanepress.com/content/hinsdale-connection"}},{"type":"Point","coordinates":[-90.543426,41.50715],"properties":{"Name":"Rock Island Farmall Plant","Address":"500 42nd Street","City":" Rock Island","State":"IL","Zip":" 60201","Country":"USA","Latitude":"41.507150","Longitude":" -90.543426,Farmall Plant,https://towns-and-nature.blogspot.com/2016/08/rock-island-il-ih-farmall-plant.html"}}]}},"arcs":[],"bbox":[-90.543426,36.964722,-82.953611,41.8896067]}
