{"type":"Topology","objects":{"indiana":{"type":"GeometryCollection","name":"indiana_geo","crs":{"type":"name","properties":{"name":"urn:ogc:def:crs:OGC:1.3:CRS84"}},"geometries":[{"type":"Point","properties":{"Name":"Falls & Baird","Address":"House Street & Swails Street","City":"Acton","State":"IN","Years_of_Operation":"&lt;--1958--&gt;","Latitude":"39.6555","Longitude":"-85.96672"},"coordinates":[6261,4606]},{"type":"Point","properties":{"Name":"Akron Implement Company","Address":"","City":"Akron","State":"IN","Years_of_Operation":"&lt;--1948--&gt;","Latitude":"41.03885","Longitude":"-86.02831"},"coordinates":[6062,8201]},{"type":"Point","properties":{"Name":"Akron Implement Company","Address":"West Rochester Street","City":"Akron","State":"IN","Years_of_Operation":"&lt;--1979--&gt;","Latitude":"41.03939","Longitude":"-86.03283"},"coordinates":[6047,8202]},{"type":"Point","properties":{"Name":"Young & Glass","Address":"","City":"Albion","State":"IN","Years_of_Operation":"&lt;--1948--&gt;","Latitude":"41.39556","Longitude":"-85.42397"},"coordinates":[8017,9128]},{"type":"Point","properties":{"Name":"Copher Motor Company","Address":"Highway 9 South","City":"Alexandria","State":"IN","Years_of_Operation":"&lt;--1958--&gt;","Latitude":"40.2628184","Longitude":"-85.675809"},"coordinates":[7202,6184]},{"type":"Point","properties":{"Name":"Cockerham Motors, Inc.","Address":"","City":"Alexandria","State":"IN","Years_of_Operation":"&lt;--1962--&gt;","Latitude":"40.25722","Longitude":"-85.67438"},"coordinates":[7207,6170]},{"type":"Point","properties":{"Name":"H. J. Clark","Address":"","City":"Amo","State":"IN","Years_of_Operation":"&lt;--1924--&gt;","Latitude":"39.68773","Longitude":"-86.61238"},"coordinates":[4172,4690]},{"type":"Point","properties":{"Name":"W. H. Hardy & Son (Inc.)","Address":"2400 Broadway Street","City":"Anderson","State":"IN","Years_of_Operation":"&lt;--1948-1984--&gt;","Latitude":"40.14114","Longitude":"-85.67699"},"coordinates":[7198,5868]},{"type":"Point","properties":{"Name":"Heckaman Buick","Address":"2721 North Broadway Street","City":"Anderson","State":"IN","Years_of_Operation":"&lt;--1973-1974--&gt;","Latitude":"40.14408","Longitude":"-85.67686"},"coordinates":[7199,5876]},{"type":"Point","properties":{"Name":"Covell Implement Store (Inc.)","Address":"109 West Gale Street","City":"Angola","State":"IN","Years_of_Operation":"&lt;--1948-1974--&gt;","Latitude":"41.63384","Longitude":"-85.00007"},"coordinates":[9388,9747]},{"type":"Point","properties":{"Name":"F. B. McNaughton","Address":"","City":"Angola","State":"IN","Years_of_Operation":"&lt;--1958--&gt;","Latitude":"41.63478","Longitude":"-85.004"},"coordinates":[9376,9750]},{"type":"Point","properties":{"Name":"Chuck Fouts Rambler Sales","Address":"","City":"Angola","State":"IN","Years_of_Operation":"&lt;--1962--&gt;","Latitude":"41.63478","Longitude":"-85.004"},"coordinates":[9376,9750]},{"type":"Point","properties":{"Name":"Gehron","Address":"","City":"Angola","State":"IN","Years_of_Operation":"&lt;--1964--&gt;","Latitude":"41.63478","Longitude":"-85.004"},"coordinates":[9376,9750]},{"type":"Point","properties":{"Name":"Dean & Tomlinson","Address":"","City":"Arcadia","State":"IN","Years_of_Operation":"&lt;--1914--&gt;","Latitude":"40.1758","Longitude":"-86.02034"},"coordinates":[6088,5958]},{"type":"Point","properties":{"Name":"Karst Equipment, Inc.","Address":"","City":"Ashley","State":"IN","Years_of_Operation":"&lt;--1978--&gt;","Latitude":"41.52506","Longitude":"-85.06693"},"coordinates":[9172,9464]},{"type":"Point","properties":{"Name":"Interstate Farm Equipment, Inc.","Address":"","City":"Ashley","State":"IN","Years_of_Operation":"&lt;--1979-1984--&gt;","Latitude":"41.52506","Longitude":"-85.06693"},"coordinates":[9172,9464]},{"type":"Point","properties":{"Name":"Culbertson Hardware Company (Inc.)","Address":"502 South Cedar Street","City":"Auburn","State":"IN","Years_of_Operation":"&lt;--1912-1953--&gt;","Latitude":"41.36313","Longitude":"-85.05446"},"coordinates":[9212,9044]},{"type":"Point","properties":{"Name":"Johnson & Smith","Address":"","City":"Auburn","State":"IN","Years_of_Operation":"&lt;--1915--&gt;","Latitude":"41.36692","Longitude":"-85.05587"},"coordinates":[9208,9053]},{"type":"Point","properties":{"Name":"R. L. Holben Auto Company","Address":"","City":"Auburn","State":"IN","Years_of_Operation":"&lt;--1958--&gt;","Latitude":"41.36692","Longitude":"-85.05587"},"coordinates":[9208,9053]},{"type":"Point","properties":{"Name":"Randall Implement Company","Address":"","City":"Aurora","State":"IN","Years_of_Operation":"&lt;--1948--&gt;","Latitude":"39.05842","Longitude":"-84.90309"},"coordinates":[9702,3054]},{"type":"Point","properties":{"Name":"Ward Bros. Garage","Address":"","City":"Aurora","State":"IN","Years_of_Operation":"&lt;--1958-1962--&gt;","Latitude":"39.05842","Longitude":"-84.90309"},"coordinates":[9702,3054]},{"type":"Point","properties":{"Name":"Bo Johnston Motors","Address":"","City":"Aurora","State":"IN","Years_of_Operation":"&lt;--1967-1969--&gt;","Latitude":"39.05842","Longitude":"-84.90309"},"coordinates":[9702,3054]},{"type":"Point","properties":{"Name":"Lischkge Motors","Address":"Highway 50 West","City":"Aurora","State":"IN","Years_of_Operation":"&lt;--1973--&gt;","Latitude":"39.07852","Longitude":"-84.88754"},"coordinates":[9753,3106]},{"type":"Point","properties":{"Name":"M. N. Hardy & Son","Address":"","City":"Austin","State":"IN","Years_of_Operation":"&lt;--1946","Latitude":"38.74303","Longitude":"-85.81333"},"coordinates":[6757,2235]},{"type":"Point","properties":{"Name":"Anderson Implement Company","Address":"","City":"Avilla","State":"IN","Years_of_Operation":"&lt;--1958--&gt;","Latitude":"41.36573","Longitude":"-85.23878"},"coordinates":[8616,9050]},{"type":"Point","properties":{"Name":"Brown & Edwards","Address":"","City":"Bainbridge","State":"IN","Years_of_Operation":"&lt;--1913--&gt;","Latitude":"39.76199","Longitude":"-86.81029"},"coordinates":[3532,4883]},{"type":"Point","properties":{"Name":"D. V. Etcheson & Son","Address":"","City":"Bainbridge","State":"IN","Years_of_Operation":"","Latitude":"39.76199","Longitude":"-86.81029"},"coordinates":[3532,4883]},{"type":"Point","properties":{"Name":"William Krieger & Sons","Address":"","City":"Batesville","State":"IN","Years_of_Operation":"&lt;--1911--&gt;","Latitude":"39.29875","Longitude":"-85.22238"},"coordinates":[8669,3679]},{"type":"Point","properties":{"Name":"W. A. Gutzwiller Company, Inc.","Address":"308 South John Street","City":"Batesville","State":"IN","Years_of_Operation":"&lt;--1948-1973--&gt;","Latitude":"39.294735","Longitude":"-85.214745"},"coordinates":[8694,3668]},{"type":"Point","properties":{"Name":"Bruns-Gutzwiller Company / Inc.","Address":"308 South John Street","City":"Batesville","State":"IN","Years_of_Operation":"&lt;--1974-1980--&gt;","Latitude":"39.29875","Longitude":"--85.214745"},"coordinates":[8694,3679]},{"type":"Point","properties":{"Name":"Don Bruns & Sons, Inc.","Address":"308 South John Street","City":"Batesville","State":"IN","Years_of_Operation":"&lt;--1984--&gt;","Latitude":"39.294735","Longitude":"-85.214745"},"coordinates":[8694,3668]},{"type":"Point","properties":{"Name":"Norman & Roberts","Address":"1002 I Street","City":"Bedford","State":"IN","Years_of_Operation":"&lt;--1948","Latitude":"38.86784","Longitude":"-86.48267"},"coordinates":[4592,2559]},{"type":"Point","properties":{"Name":"Ray R. Roberts & Sons (Inc.)","Address":"1202 J Street","City":"Bedford","State":"IN","Years_of_Operation":"1948-1969--&gt;","Latitude":"38.86215","Longitude":"-86.48413"},"coordinates":[4587,2544]},{"type":"Point","properties":{"Name":"M. G. W. Truck & Implement (Corp.)","Address":"1202 J Street","City":"Bedford","State":"IN","Years_of_Operation":"&lt;--1973-1976--&gt;","Latitude":"38.86215","Longitude":"-86.48413"},"coordinates":[4587,2544]},{"type":"Point","properties":{"Name":"Clampitts' Farm Center, Inc.","Address":"1202 J Street","City":"Bedford","State":"IN","Years_of_Operation":"&lt;--1979--&gt;","Latitude":"38.86215","Longitude":"-86.48413"},"coordinates":[4587,2544]},{"type":"Point","properties":{"Name":"Berne Farm Equipment (Company)","Address":"","City":"Berne","State":"IN","Years_of_Operation":"&lt;--1948-1967--&gt;","Latitude":"40.65871","Longitude":"-84.95576"},"coordinates":[9532,7213]},{"type":"Point","properties":{"Name":"Balsiger Motor Sales","Address":"607 West Franklin Street","City":"Berne","State":"IN","Years_of_Operation":"&lt;--1969-1973--&gt;","Latitude":"40.6573","Longitude":"-84.95682"},"coordinates":[9528,7209]},{"type":"Point","properties":{"Name":"Maddox Auto Service","Address":"","City":"Bloomfield","State":"IN","Years_of_Operation":"&lt;--1948-1962--&gt;","Latitude":"39.02682","Longitude":"-86.93733"},"coordinates":[3121,2972]},{"type":"Point","properties":{"Name":"Thomas Equipment (Company)","Address":"","City":"Bloomfield","State":"IN","Years_of_Operation":"&lt;--1964--&gt;","Latitude":"39.02682","Longitude":"-86.93733"},"coordinates":[3121,2972]},{"type":"Point","properties":{"Name":"John W. Kennedy","Address":"312 Morton Street","City":"Bloomington","State":"IN","Years_of_Operation":"&lt;--1939-1950--&gt;","Latitude":"39.16926","Longitude":"-86.53574"},"coordinates":[4420,3342]},{"type":"Point","properties":{"Name":"Barnard Trucks, Inc.","Address":"419 North Walnut Street","City":"Bloomington","State":"IN","Years_of_Operation":"&lt;--1958-1964--&gt;","Latitude":"39.17014","Longitude":"-86.53395"},"coordinates":[4426,3344]},{"type":"Point","properties":{"Name":"Barnard Motors, Inc.","Address":"","City":"Bloomington","State":"IN","Years_of_Operation":"&lt;--1967--&gt;","Latitude":"39.16659","Longitude":"-86.53489"},"coordinates":[4423,3335]},{"type":"Point","properties":{"Name":"Summers Trucks, Inc.","Address":"","City":"Bloomington","State":"IN","Years_of_Operation":"&lt;--1969--&gt;","Latitude":"39.16659","Longitude":"-86.53489"},"coordinates":[4423,3335]},{"type":"Point","properties":{"Name":"International Harvester Company","Address":"3951 South Highway 37","City":"Bloomington","State":"IN","Years_of_Operation":"&lt;--1973--&gt;","Latitude":"39.15485","Longitude":"-86.57325"},"coordinates":[4299,3305]},{"type":"Point","properties":{"Name":"McArdle International Trucks, Inc.","Address":"3951 South Highway 37","City":"Bloomington","State":"IN","Years_of_Operation":"&lt;--1974-1990--&gt;","Latitude":"39.15485","Longitude":"-86.57325"},"coordinates":[4299,3305]},{"type":"Point","properties":{"Name":"Bluffton Implement Company","Address":"","City":"Bluffton","State":"IN","Years_of_Operation":"&lt;--1926--&gt;","Latitude":"40.7387","Longitude":"-85.17149"},"coordinates":[8834,7421]},{"type":"Point","properties":{"Name":"Ware Baker Company","Address":"","City":"Bluffton","State":"IN","Years_of_Operation":"&lt;--1948-1958--&gt;","Latitude":"40.7387","Longitude":"-85.17149"},"coordinates":[8834,7421]},{"type":"Point","properties":{"Name":"Flaningam & Son","Address":"","City":"Bluffton","State":"IN","Years_of_Operation":"&lt;--1960-1969--&gt;","Latitude":"40.7387","Longitude":"-85.17149"},"coordinates":[8834,7421]},{"type":"Point","properties":{"Name":"Warrick Co-Operative Company","Address":"5th Street & Southern Railway","City":"Boonville","State":"IN","Years_of_Operation":"&lt;--1923--&gt;","Latitude":"38.04562","Longitude":"-87.27207"},"coordinates":[2038,422]},{"type":"Point","properties":{"Name":"H. F. Metz","Address":"South 3rd Street","City":"Boonville","State":"IN","Years_of_Operation":"&lt;--1937-1958--&gt;","Latitude":"38.03764","Longitude":"-87.27449"},"coordinates":[2030,401]},{"type":"Point","properties":{"Name":"Miller & Oschman, Inc.","Address":"South 3rd Street; 3555 Highway 62","City":"Boonville","State":"IN","Years_of_Operation":"&lt;--1962-1984--&gt;","Latitude":"39.46711","Longitude":"-87.414"},"coordinates":[1579,4116]},{"type":"Point","properties":{"Name":"Hendrickson Enterprise, Inc.","Address":"Highway 62 West","City":"Boonville","State":"IN","Years_of_Operation":"&lt;--1977-1984--&gt;","Latitude":"38.04839","Longitude":"-87.31742"},"coordinates":[1891,429]},{"type":"Point","properties":{"Name":"Geo. McKinley & Son","Address":"","City":"Borden","State":"IN","Years_of_Operation":"&lt;--1947","Latitude":"38.46664","Longitude":"-85.94635"},"coordinates":[6327,1516]},{"type":"Point","properties":{"Name":"J. E. Robinson Implement Company","Address":"210 South Adams Street","City":"Boswell","State":"IN","Years_of_Operation":"&lt;--1948-1969--&gt;","Latitude":"40.51651","Longitude":"-87.38285"},"coordinates":[1680,6843]},{"type":"Point","properties":{"Name":"Floyd Hines Equipment Company","Address":"","City":"Bourbon","State":"IN","Years_of_Operation":"&lt;--1948--&gt;","Latitude":"41.29554","Longitude":"-86.1163"},"coordinates":[5777,8868]},{"type":"Point","properties":{"Name":"Bourbon Farm & Home Supply (Inc.)","Address":"407 East Center Street","City":"Bourbon","State":"IN","Years_of_Operation":"&lt;--1955-1979--&gt;","Latitude":"41.29584","Longitude":"-86.11199"},"coordinates":[5791,8869]},{"type":"Point","properties":{"Name":"Hoffa Bros.","Address":"","City":"Bowling Green","State":"IN","Years_of_Operation":"&lt;--1947","Latitude":"39.37718","Longitude":"-86.99827"},"coordinates":[2924,3883]},{"type":"Point","properties":{"Name":"Owl Hardware & Implement Company","Address":"","City":"Brazil","State":"IN","Years_of_Operation":"&lt;--1922--&gt;","Latitude":"39.52363","Longitude":"-87.12519"},"coordinates":[2513,4263]},{"type":"Point","properties":{"Name":"Girton Implement Company (Inc.)","Address":"Highway 40 East","City":"Brazil","State":"IN","Years_of_Operation":"&lt;--1947-1990--&gt;","Latitude":"39.52345","Longitude":"-87.12648"},"coordinates":[2509,4263]},{"type":"Point","properties":{"Name":"W. L. Mast","Address":"","City":"Bremen","State":"IN","Years_of_Operation":"&lt;--1945","Latitude":"41.44642","Longitude":"-86.15612"},"coordinates":[5648,9260]},{"type":"Point","properties":{"Name":"Bremen Implement Company","Address":"","City":"Bremen","State":"IN","Years_of_Operation":"&lt;--1948","Latitude":"41.44642","Longitude":"-86.15612"},"coordinates":[5648,9260]},{"type":"Point","properties":{"Name":"Braden Martin Implement Company","Address":"","City":"Bremen","State":"IN","Years_of_Operation":"&lt;--1948--&gt;","Latitude":"41.44642","Longitude":"-86.15612"},"coordinates":[5648,9260]},{"type":"Point","properties":{"Name":"Martin & Gragg","Address":"","City":"Bremen","State":"IN","Years_of_Operation":"&lt;--1958--&gt;","Latitude":"41.44642","Longitude":"-86.15612"},"coordinates":[5648,9260]},{"type":"Point","properties":{"Name":"Martin Implement Company","Address":"","City":"Bremen","State":"IN","Years_of_Operation":"&lt;--1962--&gt;","Latitude":"41.44642","Longitude":"-86.15612"},"coordinates":[5648,9260]},{"type":"Point","properties":{"Name":"Ray Martin Equipment Company","Address":"","City":"Bremen","State":"IN","Years_of_Operation":"&lt;--1964-1967--&gt;","Latitude":"41.44642","Longitude":"-86.15612"},"coordinates":[5648,9260]},{"type":"Point","properties":{"Name":"Bremen Farm Center, Inc.","Address":"Highway 6 West","City":"Bremen","State":"IN","Years_of_Operation":"&lt;--1969-1976--&gt;","Latitude":"41.45117","Longitude":"-86.09305"},"coordinates":[5852,9272]},{"type":"Point","properties":{"Name":"Rader Equipment, Inc.","Address":"Highway 331 North","City":"Bremen","State":"IN","Years_of_Operation":"&lt;--1979-1984--&gt;","Latitude":"41.47924","Longitude":"-86.15623"},"coordinates":[5648,9345]},{"type":"Point","properties":{"Name":"Ernst Witte & Son","Address":"","City":"Bristow","State":"IN","Years_of_Operation":"&lt;--1945","Latitude":"38.14016","Longitude":"-86.72141"},"coordinates":[3819,668]},{"type":"Point","properties":{"Name":"Hoover Implement Company","Address":"","City":"Brookston","State":"IN","Years_of_Operation":"&lt;--1946","Latitude":"40.6027","Longitude":"-86.86855"},"coordinates":[3343,7067]},{"type":"Point","properties":{"Name":"Halstead Implement Company (Inc.)","Address":"East 3rd Street","City":"Brookston","State":"IN","Years_of_Operation":"&lt;--1948-1984--&gt;","Latitude":"40.6027","Longitude":"-86.86249"},"coordinates":[3363,7067]},{"type":"Point","properties":{"Name":"Frank S. Masters / F. S. Masters","Address":"","City":"Brookville","State":"IN","Years_of_Operation":"1902-1915--&gt;","Latitude":"39.41852","Longitude":"-85.0128"},"coordinates":[9347,3990]},{"type":"Point","properties":{"Name":"Freis & Geis","Address":"","City":"Brookville","State":"IN","Years_of_Operation":"1902-1912--&gt;","Latitude":"39.41852","Longitude":"-85.0128"},"coordinates":[9347,3990]},{"type":"Point","properties":{"Name":"Chas. Samoniel / Charles Samoniel","Address":"","City":"Brookville","State":"IN","Years_of_Operation":"&lt;--1911-1923--&gt;","Latitude":"39.41852","Longitude":"-85.0128"},"coordinates":[9347,3990]},{"type":"Point","properties":{"Name":"Pioneer Hardware Company","Address":"","City":"Brookville","State":"IN","Years_of_Operation":"&lt;--1926-1927--&gt;","Latitude":"39.41852","Longitude":"-85.0128"},"coordinates":[9347,3990]},{"type":"Point","properties":{"Name":"Williams & Kuntz","Address":"","City":"Brookville","State":"IN","Years_of_Operation":"&lt;--1948--&gt;","Latitude":"39.41852","Longitude":"-85.0128"},"coordinates":[9347,3990]},{"type":"Point","properties":{"Name":"Dependable Motors, Inc.","Address":"","City":"Brookville","State":"IN","Years_of_Operation":"&lt;--1962-1969--&gt;","Latitude":"39.41852","Longitude":"-85.0128"},"coordinates":[9347,3990]},{"type":"Point","properties":{"Name":"J. N. Currens","Address":"","City":"Burr Oak","State":"IN","Years_of_Operation":"&lt;--1948--&gt;","Latitude":"41.25659","Longitude":"-86.4149"},"coordinates":[4811,8767]},{"type":"Point","properties":{"Name":"Aldrich Brothers","Address":"","City":"Butler","State":"IN","Years_of_Operation":"&lt;--1911--&gt;","Latitude":"41.42972","Longitude":"-84.87134"},"coordinates":[9805,9217]},{"type":"Point","properties":{"Name":"Fisher Implement Company","Address":"","City":"Butler","State":"IN","Years_of_Operation":"&lt;--1948-1952--&gt;","Latitude":"41.42972","Longitude":"-84.87134"},"coordinates":[9805,9217]},{"type":"Point","properties":{"Name":"Fred Dodds Hardware Company","Address":"","City":"Campbellsburg","State":"IN","Years_of_Operation":"&lt;--1946","Latitude":"38.64922","Longitude":"-86.26113"},"coordinates":[5309,1991]},{"type":"Point","properties":{"Name":"Carmel Welding Service","Address":"","City":"Carmel","State":"IN","Years_of_Operation":"&lt;--1958-1964--&gt;","Latitude":"39.97839","Longitude":"-86.12707"},"coordinates":[5742,5445]},{"type":"Point","properties":{"Name":"Carmel Welding & Supply Company, Inc.","Address":"550 South Rangeline Road","City":"Carmel","State":"IN","Years_of_Operation":"&lt;--1967-1979--&gt;","Latitude":"39.9734","Longitude":"-86.12661"},"coordinates":[5744,5432]},{"type":"Point","properties":{"Name":"Fred A. Fable","Address":"","City":"Cayuga","State":"IN","Years_of_Operation":"","Latitude":"39.95225","Longitude":"-87.46125"},"coordinates":[1426,5377]},{"type":"Point","properties":{"Name":"Martin Ericson","Address":"","City":"Chesterton","State":"IN","Years_of_Operation":"&lt;--1945","Latitude":"41.60665","Longitude":"-87.05162"},"coordinates":[2751,9676]},{"type":"Point","properties":{"Name":"Churubusco Hatchery & Farm Supply","Address":"","City":"Churubusco","State":"IN","Years_of_Operation":"&lt;--1948--&gt;","Latitude":"41.23056","Longitude":"-85.31929"},"coordinates":[8356,8699]},{"type":"Point","properties":{"Name":"Bockelman Implement Company","Address":"","City":"Churubusco","State":"IN","Years_of_Operation":"&lt;--1958-1964--&gt;","Latitude":"41.23056","Longitude":"-85.31929"},"coordinates":[8356,8699]},{"type":"Point","properties":{"Name":"Geiger Equipment, Inc.","Address":"Highway 205 West","City":"Churubusco","State":"IN","Years_of_Operation":"&lt;--1967-1979--&gt;","Latitude":"41.23056","Longitude":"-85.31929"},"coordinates":[8356,8699]},{"type":"Point","properties":{"Name":"Frank McNight","Address":"","City":"Cicero","State":"IN","Years_of_Operation":"&lt;--1916--&gt;","Latitude":"40.1323","Longitude":"-86.01342"},"coordinates":[6110,5845]},{"type":"Point","properties":{"Name":"W. F. Scanlon","Address":"","City":"Clarks Hill","State":"IN","Years_of_Operation":"&lt;--1927--&gt;","Latitude":"40.24789","Longitude":"-86.72505"},"coordinates":[3808,6145]},{"type":"Point","properties":{"Name":"Summers & Jackson","Address":"","City":"Clarks Hill","State":"IN","Years_of_Operation":"&lt;--1946","Latitude":"40.24789","Longitude":"-86.72505"},"coordinates":[3808,6145]},{"type":"Point","properties":{"Name":"Hall Sales Company","Address":"","City":"Clarks Hill","State":"IN","Years_of_Operation":"&lt;--1948-1958--&gt;","Latitude":"40.24789","Longitude":"-86.72505"},"coordinates":[3808,6145]},{"type":"Point","properties":{"Name":"Smith & Niswongls","Address":"","City":"Clay City","State":"IN","Years_of_Operation":"&lt;--1912--&gt;","Latitude":"39.27536","Longitude":"-87.11527"},"coordinates":[2545,3618]},{"type":"Point","properties":{"Name":"Schopmeyer Implement & Truck Sales","Address":"","City":"Clay City","State":"IN","Years_of_Operation":"&lt;--1948-1964--&gt;","Latitude":"39.27536","Longitude":"-87.11527"},"coordinates":[2545,3618]},{"type":"Point","properties":{"Name":"Hoffman Equipment Company","Address":"","City":"Clay City","State":"IN","Years_of_Operation":"&lt;--1967-1969--&gt;","Latitude":"39.27536","Longitude":"-87.11527"},"coordinates":[2545,3618]},{"type":"Point","properties":{"Name":"Raymond La Salle","Address":"","City":"Clay City","State":"IN","Years_of_Operation":"","Latitude":"39.27536","Longitude":"-87.11527"},"coordinates":[2545,3618]},{"type":"Point","properties":{"Name":"Clinton Implement & Truck Company","Address":"558 North 9th Street","City":"Clinton","State":"IN","Years_of_Operation":"&lt;--1948-1984--&gt;","Latitude":"39.6659","Longitude":"-87.4085"},"coordinates":[1597,4633]},{"type":"Point","properties":{"Name":"Wabash Oil Company","Address":"","City":"Clinton","State":"IN","Years_of_Operation":"","Latitude":"39.65717","Longitude":"-87.40392"},"coordinates":[1611,4610]},{"type":"Point","properties":{"Name":"Morrison Bros.","Address":"","City":"Cloverdale","State":"IN","Years_of_Operation":"&lt;--1923--&gt;","Latitude":"39.51476","Longitude":"-86.79425"},"coordinates":[3584,4240]},{"type":"Point","properties":{"Name":"Burk Sales","Address":"","City":"Cloverdale","State":"IN","Years_of_Operation":"&lt;--1958--&gt;","Latitude":"39.51476","Longitude":"-86.79425"},"coordinates":[3584,4240]},{"type":"Point","properties":{"Name":"Barnett Motor Sales","Address":"","City":"Cloverdale","State":"IN","Years_of_Operation":"&lt;--1962-1964--&gt;","Latitude":"39.51476","Longitude":"-86.79425"},"coordinates":[3584,4240]},{"type":"Point","properties":{"Name":"Farmers Supply Company","Address":"","City":"Coatesville","State":"IN","Years_of_Operation":"&lt;--1941--&gt;","Latitude":"39.68957","Longitude":"-86.66989"},"coordinates":[3986,4694]},{"type":"Point","properties":{"Name":"Farm Supply Company","Address":"West Main Street","City":"Coatesville","State":"IN","Years_of_Operation":"&lt;--1948-1955--&gt;","Latitude":"39.68812","Longitude":"-86.68724"},"coordinates":[3930,4691]},{"type":"Point","properties":{"Name":"Coatesville Farm Supply Company, Inc.","Address":"31 West Main Street","City":"Coatesville","State":"IN","Years_of_Operation":"&lt;--1976-1979--&gt;","Latitude":"39.68812","Longitude":"-86.68724"},"coordinates":[3930,4691]},{"type":"Point","properties":{"Name":"Larr Equipment, Inc.","Address":"31 West Main Street","City":"Coatesville","State":"IN","Years_of_Operation":"&lt;--1984--&gt;","Latitude":"39.68812","Longitude":"-86.68724"},"coordinates":[3930,4691]},{"type":"Point","properties":{"Name":"Trier Implement Company","Address":"","City":"Columbia City","State":"IN","Years_of_Operation":"&lt;--1943-1948--&gt;","Latitude":"41.15704","Longitude":"-85.48841"},"coordinates":[7809,8508]},{"type":"Point","properties":{"Name":"Wolfe's Garage","Address":"","City":"Columbia City","State":"IN","Years_of_Operation":"&lt;--1958--&gt;","Latitude":"41.15704","Longitude":"-85.48841"},"coordinates":[7809,8508]},{"type":"Point","properties":{"Name":"Columbia Truck & Tractor, Inc.","Address":"","City":"Columbia City","State":"IN","Years_of_Operation":"&lt;--1964--&gt;","Latitude":"41.15704","Longitude":"-85.48841"},"coordinates":[7809,8508]},{"type":"Point","properties":{"Name":"B & C Sales","Address":"","City":"Columbia City","State":"IN","Years_of_Operation":"&lt;--1967--&gt;","Latitude":"41.15704","Longitude":"-85.48841"},"coordinates":[7809,8508]},{"type":"Point","properties":{"Name":"Hurd's Auto Repair","Address":"","City":"Columbia City","State":"IN","Years_of_Operation":"&lt;--1969-1976--&gt;","Latitude":"41.15704","Longitude":"-85.48841"},"coordinates":[7809,8508]},{"type":"Point","properties":{"Name":"Farmers' Supply Company","Address":"","City":"Columbus","State":"IN","Years_of_Operation":"&lt;--1926-1930--&gt;","Latitude":"39.2014","Longitude":"-85.92103"},"coordinates":[6409,3426]},{"type":"Point","properties":{"Name":"Westermeier Hardware Company (Inc.)","Address":"","City":"Columbus","State":"IN","Years_of_Operation":"&lt;--1935-1948--&gt;","Latitude":"39.2014","Longitude":"-85.92103"},"coordinates":[6409,3426]},{"type":"Point","properties":{"Name":"Noll Motors, Inc.","Address":"","City":"Columbus","State":"IN","Years_of_Operation":"&lt;--1958-1969--&gt;","Latitude":"39.2014","Longitude":"-85.92103"},"coordinates":[6409,3426]},{"type":"Point","properties":{"Name":"East Side Equipment Company","Address":"2011 State Street","City":"Columbus","State":"IN","Years_of_Operation":"&lt;--1965-1967--&gt;","Latitude":"39.19633","Longitude":"-85.9013"},"coordinates":[6473,3413]},{"type":"Point","properties":{"Name":"Timperman-McGuire","Address":"Highways 46 & 9","City":"Columbus","State":"IN","Years_of_Operation":"&lt;--1973-1976--&gt;","Latitude":"39.21043","Longitude":"-85.77179"},"coordinates":[6892,3449]},{"type":"Point","properties":{"Name":"McGuire International, Inc.","Address":"14154 East Highway 46","City":"Columbus","State":"IN","Years_of_Operation":"&lt;--1977-1990--&gt;","Latitude":"41.63935","Longitude":"-87.47082"},"coordinates":[1395,9761]},{"type":"Point","properties":{"Name":"C. F. Lurton","Address":"","City":"Commiskey","State":"IN","Years_of_Operation":"&lt;--1936--&gt;","Latitude":"38.8595005","Longitude":"-85.645522"},"coordinates":[7300,2537]},{"type":"Point","properties":{"Name":"Lurton's Store","Address":"","City":"Commiskey","State":"IN","Years_of_Operation":"&lt;--1944","Latitude":"38.8595005","Longitude":"-85.645522"},"coordinates":[7300,2537]},{"type":"Point","properties":{"Name":"George Mettle","Address":"","City":"Connersville","State":"IN","Years_of_Operation":"&lt;--1909--&gt;","Latitude":"39.63941","Longitude":"-85.14089"},"coordinates":[8933,4564]},{"type":"Point","properties":{"Name":"Fayette County Implement Company","Address":"810 Eastern Avenue","City":"Connersville","State":"IN","Years_of_Operation":"&lt;--1944","Latitude":"39.6439","Longitude":"-85.13523"},"coordinates":[8951,4576]},{"type":"Point","properties":{"Name":"Farmers Implement & Supply Company","Address":"810 Eastern Avenue","City":"Connersville","State":"IN","Years_of_Operation":"1944--&gt;","Latitude":"39.6439","Longitude":"-85.13523"},"coordinates":[8951,4576]},{"type":"Point","properties":{"Name":"White Implement Company (Inc.)","Address":"2516 Western Avenue","City":"Connersville","State":"IN","Years_of_Operation":"&lt;--1948-1979--&gt;","Latitude":"39.66666","Longitude":"-85.13805"},"coordinates":[8942,4635]},{"type":"Point","properties":{"Name":"Burk & Malott","Address":"","City":"Converse","State":"IN","Years_of_Operation":"&lt;--1937--&gt;","Latitude":"40.57745","Longitude":"-85.87079"},"coordinates":[6571,7002]},{"type":"Point","properties":{"Name":"John C. Malott","Address":"","City":"Converse","State":"IN","Years_of_Operation":"&lt;--1948-1958--&gt;","Latitude":"40.57745","Longitude":"-85.87079"},"coordinates":[6571,7002]},{"type":"Point","properties":{"Name":"Johnny's Auto Service","Address":"Highway 41","City":"Cook (Cedar Lake)","State":"IN","Years_of_Operation":"&lt;--1958--&gt;","Latitude":"41.3647578","Longitude":"-87.4411473"},"coordinates":[1491,9048]},{"type":"Point","properties":{"Name":"R. I. Bennett","Address":"","City":"Cory","State":"IN","Years_of_Operation":"&lt;--1923--&gt;","Latitude":"39.38917","Longitude":"-87.2067"},"coordinates":[2249,3914]},{"type":"Point","properties":{"Name":"Jacobi Service Station","Address":"","City":"Corydon","State":"IN","Years_of_Operation":"&lt;--1947","Latitude":"38.21224","Longitude":"-86.12631"},"coordinates":[5745,855]},{"type":"Point","properties":{"Name":"Rowe Motor Sales","Address":"","City":"Corydon","State":"IN","Years_of_Operation":"&lt;--1958--&gt;","Latitude":"38.21224","Longitude":"-86.12631"},"coordinates":[5745,855]},{"type":"Point","properties":{"Name":"Bilsland Implement Company (Inc.)","Address":"501 3rd Street","City":"Covington","State":"IN","Years_of_Operation":"&lt;--1948-1979--&gt;","Latitude":"40.13853","Longitude":"-87.39858"},"coordinates":[1629,5861]},{"type":"Point","properties":{"Name":"Gilliland Implement Company, Inc.","Address":"501 3rd Street","City":"Covington","State":"IN","Years_of_Operation":"&lt;--1984--&gt;","Latitude":"40.13853","Longitude":"-87.39858"},"coordinates":[1629,5861]},{"type":"Point","properties":{"Name":"Earl B. Thomas","Address":"","City":"Crandall","State":"IN","Years_of_Operation":"&lt;--1946","Latitude":"38.28749","Longitude":"-86.06617"},"coordinates":[5939,1051]},{"type":"Point","properties":{"Name":"Crawfordsville Hardware Company","Address":"","City":"Crawfordsville","State":"IN","Years_of_Operation":"&lt;--1915--&gt;","Latitude":"40.04286","Longitude":"-86.90334"},"coordinates":[3231,5612]},{"type":"Point","properties":{"Name":"Krueck & Leaming","Address":"","City":"Crawfordsville","State":"IN","Years_of_Operation":"&lt;--1930--&gt;","Latitude":"40.04286","Longitude":"-86.90334"},"coordinates":[3231,5612]},{"type":"Point","properties":{"Name":"Hunter B. Leaming, Inc.","Address":"","City":"Crawfordsville","State":"IN","Years_of_Operation":"&lt;--1931--&gt;","Latitude":"40.04286","Longitude":"-86.90334"},"coordinates":[3231,5612]},{"type":"Point","properties":{"Name":"Veatch & Pinkerton, Inc.","Address":"402 Waynetown Road","City":"Crawfordsville","State":"IN","Years_of_Operation":"&lt;--1948-1967--&gt;","Latitude":"40.04528","Longitude":"-86.91964"},"coordinates":[3178,5619]},{"type":"Point","properties":{"Name":"Edwards Motor Sales","Address":"","City":"Crawfordsville","State":"IN","Years_of_Operation":"&lt;--1958-1969--&gt;","Latitude":"40.04286","Longitude":"-86.90334"},"coordinates":[3231,5612]},{"type":"Point","properties":{"Name":"Town Edge Motors (Inc.)","Address":"1401 Darlington Avenue","City":"Crawfordsville","State":"IN","Years_of_Operation":"&lt;-- 1973-1979--&gt;","Latitude":"40.04618","Longitude":"-86.88048"},"coordinates":[3305,5621]},{"type":"Point","properties":{"Name":"M. L. Burkett & Sons, Inc.","Address":"402 Waynetown Road","City":"Crawfordsville","State":"IN","Years_of_Operation":"&lt;--1979-1984--&gt;","Latitude":"40.04528","Longitude":"-86.91964"},"coordinates":[3178,5619]},{"type":"Point","properties":{"Name":"Battermann & Millies","Address":"","City":"Crown Point","State":"IN","Years_of_Operation":"&lt;--1915--&gt;","Latitude":"41.41794","Longitude":"-87.36433"},"coordinates":[1739,9186]},{"type":"Point","properties":{"Name":"P. W. Struebig","Address":"","City":"Crown Point","State":"IN","Years_of_Operation":"&lt;--1938--&gt;","Latitude":"41.41794","Longitude":"-87.36433"},"coordinates":[1739,9186]},{"type":"Point","properties":{"Name":"P. W. Struebig & Son","Address":"1122 North Main Street","City":"Crown Point","State":"IN","Years_of_Operation":"&lt;--1948-1974--&gt;","Latitude":"41.4291","Longitude":"-87.36341"},"coordinates":[1742,9215]},{"type":"Point","properties":{"Name":"Struebig Truck Sales, Inc.","Address":"1122 North Main Street","City":"Crown Point","State":"IN","Years_of_Operation":"","Latitude":"41.4291","Longitude":"-87.36341"},"coordinates":[1742,9215]},{"type":"Point","properties":{"Name":"Hub Distributing Company","Address":"1122 North Main Street","City":"Crown Point","State":"IN","Years_of_Operation":"&lt;--1977--&gt;","Latitude":"41.4291","Longitude":"-87.36341"},"coordinates":[1742,9215]},{"type":"Point","properties":{"Name":"Chas. Van Meter","Address":"","City":"Culver","State":"IN","Years_of_Operation":"&lt;--1948--&gt;","Latitude":"41.21884","Longitude":"-86.42091"},"coordinates":[4792,8669]},{"type":"Point","properties":{"Name":"Nelson Equipment Company","Address":"","City":"Culver","State":"IN","Years_of_Operation":"&lt;--1959-1964--&gt;","Latitude":"41.21884","Longitude":"-86.42091"},"coordinates":[4792,8669]},{"type":"Point","properties":{"Name":"Newhouse & Kilkene","Address":"","City":"Cumberland","State":"IN","Years_of_Operation":"&lt;--1923--&gt;","Latitude":"39.7761534","Longitude":"--85.9572036"},"coordinates":[6292,4919]},{"type":"Point","properties":{"Name":"Wilson's Garage","Address":"","City":"Cynthiana","State":"IN","Years_of_Operation":"&lt;--1945","Latitude":"38.18745","Longitude":"-87.70937"},"coordinates":[623,791]},{"type":"Point","properties":{"Name":"S. W. & J Motor Company","Address":"","City":"Dale","State":"IN","Years_of_Operation":"1940--&gt;","Latitude":"38.16685","Longitude":"-86.99003"},"coordinates":[2950,737]},{"type":"Point","properties":{"Name":"C. W. Wedeking Company","Address":"","City":"Dale","State":"IN","Years_of_Operation":"&lt;--1946","Latitude":"38.16685","Longitude":"-86.99003"},"coordinates":[2950,737]},{"type":"Point","properties":{"Name":"J. C. Hardy","Address":"","City":"Dana","State":"IN","Years_of_Operation":"&lt;--1912-1914--&gt;","Latitude":"39.80765","Longitude":"-87.49492"},"coordinates":[1317,5001]},{"type":"Point","properties":{"Name":"Norman Popello","Address":"","City":"Dana","State":"IN","Years_of_Operation":"&lt;--1948-1958--&gt;","Latitude":"39.80765","Longitude":"-87.49492"},"coordinates":[1317,5001]},{"type":"Point","properties":{"Name":"A. J. Carrera","Address":"","City":"Dana","State":"IN","Years_of_Operation":"&lt;--1962--&gt;","Latitude":"39.80765","Longitude":"-87.49492"},"coordinates":[1317,5001]},{"type":"Point","properties":{"Name":"Pete's Automotive Service","Address":"Jct. Highway 36 & 71","City":"Dana","State":"IN","Years_of_Operation":"&lt;--1964--&gt;","Latitude":"42.11207","Longitude":"-94.28119"},"coordinates":[1317,5001]},{"type":"Point","properties":{"Name":"Newman Hardware","Address":"","City":"Danville","State":"IN","Years_of_Operation":"&lt;--1916--&gt;","Latitude":"39.76076","Longitude":"-86.52387"},"coordinates":[4459,4879]},{"type":"Point","properties":{"Name":"Farmers Supply Company","Address":"","City":"Danville","State":"IN","Years_of_Operation":"&lt;--1941--&gt;","Latitude":"39.76076","Longitude":"-86.52387"},"coordinates":[4459,4879]},{"type":"Point","properties":{"Name":"Hill Implement & Truck Sales","Address":"","City":"Danville","State":"IN","Years_of_Operation":"&lt;--1948--&gt;","Latitude":"39.76076","Longitude":"-86.52387"},"coordinates":[4459,4879]},{"type":"Point","properties":{"Name":"Dutch Stuart","Address":"","City":"Danville","State":"IN","Years_of_Operation":"&lt;--1958--&gt;","Latitude":"39.76076","Longitude":"-86.52387"},"coordinates":[4459,4879]},{"type":"Point","properties":{"Name":"Campbell Hardware","Address":"","City":"Darlington","State":"IN","Years_of_Operation":"&lt;--1948--&gt;","Latitude":"40.10697","Longitude":"-86.7744"},"coordinates":[3648,5779]},{"type":"Point","properties":{"Name":"Lehe Equipment Sales","Address":"","City":"Darlington","State":"IN","Years_of_Operation":"&lt;--1958-1969--&gt;","Latitude":"40.10697","Longitude":"-86.7744"},"coordinates":[3648,5779]},{"type":"Point","properties":{"Name":"Mollenkopf & Eiting, Inc.","Address":"","City":"Decatur","State":"IN","Years_of_Operation":"&lt;--1948-1950--&gt;","Latitude":"40.83137","Longitude":"-84.92435"},"coordinates":[9633,7662]},{"type":"Point","properties":{"Name":"Decatur Equipment, Inc.","Address":"Highway 27 North","City":"Decatur","State":"IN","Years_of_Operation":"&lt;--1958-1965--&gt;","Latitude":"40.99925","Longitude":"-85.09856"},"coordinates":[9070,8098]},{"type":"Point","properties":{"Name":"Decatur Truck & Tractor (Inc.)","Address":"Highway 224 West","City":"Decatur","State":"IN","Years_of_Operation":"&lt;--1967-1990--&gt;","Latitude":"40.8403","Longitude":"-84.90472"},"coordinates":[9697,7685]},{"type":"Point","properties":{"Name":"L. M. Pletcher","Address":"","City":"Delphi","State":"IN","Years_of_Operation":"&lt;--1942-1944","Latitude":"40.58614","Longitude":"-86.67399"},"coordinates":[3973,7024]},{"type":"Point","properties":{"Name":"Delphi Farm Supply, Inc.","Address":"","City":"Delphi","State":"IN","Years_of_Operation":"&lt;--1948--&gt;","Latitude":"40.58614","Longitude":"-86.67399"},"coordinates":[3973,7024]},{"type":"Point","properties":{"Name":"Coghill Car Sales","Address":"","City":"Delphi","State":"IN","Years_of_Operation":"&lt;--1958--&gt;","Latitude":"40.58614","Longitude":"-86.67399"},"coordinates":[3973,7024]},{"type":"Point","properties":{"Name":"D. A. Garrison Motor Truck Sales","Address":"","City":"Delphi","State":"IN","Years_of_Operation":"&lt;--1962--&gt;","Latitude":"40.58614","Longitude":"-86.67399"},"coordinates":[3973,7024]},{"type":"Point","properties":{"Name":"D. A. Garrison Grain / D. A. Garrison Grain Transport Company, Inc.","Address":"Highway 421","City":"Delphi","State":"IN","Years_of_Operation":"&lt;--1964-1979--&gt;","Latitude":"40.54117","Longitude":"-86.6397"},"coordinates":[4084,6907]},{"type":"Point","properties":{"Name":"F. M. Hart","Address":"","City":"DeMotte","State":"IN","Years_of_Operation":"&lt;--1919--&gt;","Latitude":"41.1954","Longitude":"-87.19866"},"coordinates":[2275,8608]},{"type":"Point","properties":{"Name":"De Kock Supply Company","Address":"808 15th Street SE","City":"DeMotte","State":"IN","Years_of_Operation":"&lt;--1948-1971--&gt;","Latitude":"41.18913","Longitude":"-87.18728"},"coordinates":[2312,8591]},{"type":"Point","properties":{"Name":"Arnold Farm Equipment, Inc.","Address":"808 15th Street SE","City":"DeMotte","State":"IN","Years_of_Operation":"&lt;--1979--&gt;","Latitude":"41.18913","Longitude":"-87.18728"},"coordinates":[2312,8591]},{"type":"Point","properties":{"Name":"Hoffman's Farm Equipment","Address":"","City":"DeMotte","State":"IN","Years_of_Operation":"","Latitude":"41.1954","Longitude":"-87.19866"},"coordinates":[2275,8608]},{"type":"Point","properties":{"Name":"Herman E. Barnes","Address":"","City":"Depauw","State":"IN","Years_of_Operation":"&lt;--1948--&gt;","Latitude":"38.33947","Longitude":"-86.21741"},"coordinates":[5450,1186]},{"type":"Point","properties":{"Name":"Dunkirk Implement Company","Address":"","City":"Dunkirk","State":"IN","Years_of_Operation":"&lt;--1958--&gt;","Latitude":"40.37474","Longitude":"-85.21003"},"coordinates":[8709,6475]},{"type":"Point","properties":{"Name":"L. Keilman Company","Address":"","City":"Dyer","State":"IN","Years_of_Operation":"&lt;--1948--&gt;","Latitude":"41.49368","Longitude":"-87.51711"},"coordinates":[1245,9383]},{"type":"Point","properties":{"Name":"J. A. Fogelman Truck Sales & Service","Address":"3601 Euclid Avenue","City":"East Chicago","State":"IN","Years_of_Operation":"&lt;--1969-1976--&gt;","Latitude":"41.64725","Longitude":"-87.45424"},"coordinates":[1449,9782]},{"type":"Point","properties":{"Name":"C. Eckerty & Son","Address":"","City":"Eckerty","State":"IN","Years_of_Operation":"&lt;--1947","Latitude":"38.32626","Longitude":"-86.61034"},"coordinates":[4179,1151]},{"type":"Point","properties":{"Name":"Economy Implement Company","Address":"","City":"Economy","State":"IN","Years_of_Operation":"&lt;--1948-1969--&gt;","Latitude":"39.9772","Longitude":"-85.08573"},"coordinates":[9111,5442]},{"type":"Point","properties":{"Name":"Hemphill-Roth","Address":"","City":"Edinburgh","State":"IN","Years_of_Operation":"&lt;--1958--&gt;","Latitude":"39.3542176","Longitude":"-85.9666577"},"coordinates":[6261,3823]},{"type":"Point","properties":{"Name":"Russ Upson Company (Inc.)","Address":"2006 Cassopolis Street","City":"Elkhart","State":"IN","Years_of_Operation":"&lt;--1948-1979--&gt;","Latitude":"41.69411","Longitude":"-85.97175"},"coordinates":[6245,9904]},{"type":"Point","properties":{"Name":"K & K Truck Sales, Inc.","Address":"28778 Highway 20 West","City":"Elkhart","State":"IN","Years_of_Operation":"&lt;--1990--&gt;","Latitude":"41.66176","Longitude":"-85.90158"},"coordinates":[6472,9820]},{"type":"Point","properties":{"Name":"C. H. Ross","Address":"","City":"Elnora","State":"IN","Years_of_Operation":"&lt;--1912--&gt;","Latitude":"38.87529","Longitude":"-87.08533"},"coordinates":[2642,2578]},{"type":"Point","properties":{"Name":"McKnight's","Address":"1519 South B Street","City":"Elwood","State":"IN","Years_of_Operation":"&lt;--1948-1979--&gt;","Latitude":"40.27468","Longitude":"-85.84044"},"coordinates":[6670,6215]},{"type":"Point","properties":{"Name":"G. H. Eastridge","Address":"","City":"English","State":"IN","Years_of_Operation":"&lt;--1948-1950--&gt;","Latitude":"38.33247","Longitude":"-86.46331"},"coordinates":[4654,1168]},{"type":"Point","properties":{"Name":"Ed Wesbecker","Address":"","City":"Evans Landing","State":"IN","Years_of_Operation":"&lt;--1948","Latitude":"38.04971","Longitude":"-85.97429"},"coordinates":[6237,433]},{"type":"Point","properties":{"Name":"Miller & Oschman Implement Company / Miller & Oschman Company","Address":"2518 First Avenue","City":"Evansville","State":"IN","Years_of_Operation":"&lt;--1939-1952--&gt;","Latitude":"38.00132","Longitude":"-87.57462"},"coordinates":[1059,307]},{"type":"Point","properties":{"Name":"Miller & Oschman, Inc.","Address":"2518 First Avenue","City":"Evansville","State":"IN","Years_of_Operation":"&lt;--1964--&gt;","Latitude":"38.00132","Longitude":"-87.57462"},"coordinates":[1059,307]},{"type":"Point","properties":{"Name":"Brandeis Machinery & Supply Company","Address":"Diamond Avenue & Highway 41","City":"Evansville","State":"IN","Years_of_Operation":"1946-1979--&gt;","Latitude":"37.99897","Longitude":"-87.53761"},"coordinates":[1179,301]},{"type":"Point","properties":{"Name":"Scott Motors, Inc.","Address":"","City":"Evansville","State":"IN","Years_of_Operation":"&lt;--1967--&gt;","Latitude":"37.97571","Longitude":"-87.56991"},"coordinates":[1074,240]},{"type":"Point","properties":{"Name":"International Harvester Company","Address":"601 East Illinois Street","City":"Evansville","State":"IN","Years_of_Operation":"&lt;--1958-1976--&gt;","Latitude":"37.97885","Longitude":"-87.55609"},"coordinates":[1119,249]},{"type":"Point","properties":{"Name":"Tri-State International Trucks, Inc.","Address":"601 East Illinois Street","City":"Evansville","State":"IN","Years_of_Operation":"&lt;--1977-1979--&gt;","Latitude":"37.97885","Longitude":"-87.55609"},"coordinates":[1119,249]},{"type":"Point","properties":{"Name":"Asher Truck & Trailer, Inc.","Address":"1108 North Fares Avenue","City":"Evansville","State":"IN","Years_of_Operation":"&lt;--1984-1990--&gt;","Latitude":"37.98787","Longitude":"-87.5433"},"coordinates":[1160,272]},{"type":"Point","properties":{"Name":"International Harvester Company","Address":"101 North Garvin Street","City":"Evansville","State":"IN","Years_of_Operation":"","Latitude":"37.97844","Longitude":"-87.55612"},"coordinates":[1119,248]},{"type":"Point","properties":{"Name":"Imel & Fraker","Address":"","City":"Fairland","State":"IN","Years_of_Operation":"&lt;--1912--&gt;","Latitude":"39.58446","Longitude":"-85.86201"},"coordinates":[6600,4421]},{"type":"Point","properties":{"Name":"Brownies Marine & Truck Sales","Address":"","City":"Fairland","State":"IN","Years_of_Operation":"&lt;--1967-1969--&gt;","Latitude":"39.58446","Longitude":"-85.86201"},"coordinates":[6600,4421]},{"type":"Point","properties":{"Name":"Holloway Implement Company","Address":"","City":"Fairmount","State":"IN","Years_of_Operation":"&lt;--1948--&gt;","Latitude":"40.41565","Longitude":"-85.6507"},"coordinates":[7283,6581]},{"type":"Point","properties":{"Name":"Curless & Armstrong Farm Equipment","Address":"","City":"Fairmount","State":"IN","Years_of_Operation":"&lt;--1962--&gt;","Latitude":"40.41565","Longitude":"-85.6507"},"coordinates":[7283,6581]},{"type":"Point","properties":{"Name":"Curless Farm Equipment","Address":"700 East Monroe Street","City":"Fairmount","State":"IN","Years_of_Operation":"&lt;--1964-1979--&gt;","Latitude":"40.41211","Longitude":"-85.64365"},"coordinates":[7306,6572]},{"type":"Point","properties":{"Name":"Hasty Farm Equipment","Address":"203 North Main Street","City":"Fairmount","State":"IN","Years_of_Operation":"&lt;--1984--&gt;","Latitude":"40.41662","Longitude":"-85.651"},"coordinates":[7283,6584]},{"type":"Point","properties":{"Name":"Hosea Stewart","Address":"","City":"Farmersburg","State":"IN","Years_of_Operation":"&lt;--1948--&gt;","Latitude":"39.25389","Longitude":"-87.38423"},"coordinates":[1675,3562]},{"type":"Point","properties":{"Name":"Wayne O. Adams","Address":"","City":"Farmland","State":"IN","Years_of_Operation":"&lt;--1923--&gt;","Latitude":"40.18913","Longitude":"-85.12772"},"coordinates":[8975,5993]},{"type":"Point","properties":{"Name":"Frank Heidet & Son","Address":"","City":"Ferdinand","State":"IN","Years_of_Operation":"&lt;--1944","Latitude":"38.22457","Longitude":"-86.86193"},"coordinates":[3365,887]},{"type":"Point","properties":{"Name":"Jacobs Garage","Address":"","City":"Ferdinand","State":"IN","Years_of_Operation":"&lt;--1962-1964--&gt;","Latitude":"38.22457","Longitude":"-86.86193"},"coordinates":[3365,887]},{"type":"Point","properties":{"Name":"E. E. Landis (Company)","Address":"","City":"Flora","State":"IN","Years_of_Operation":"&lt;--1925-1964--&gt;","Latitude":"40.5471","Longitude":"-86.52293"},"coordinates":[4462,6923]},{"type":"Point","properties":{"Name":"Red Front Implement Store","Address":"","City":"Forest","State":"IN","Years_of_Operation":"1902-1916--&gt;","Latitude":"40.373648","Longitude":"-86.3327748"},"coordinates":[5077,6472]},{"type":"Point","properties":{"Name":"E. L. Brookbank Company","Address":"","City":"Forest","State":"IN","Years_of_Operation":"&lt;--1948-1967--&gt;","Latitude":"40.373648","Longitude":"-86.3327748"},"coordinates":[5077,6472]},{"type":"Point","properties":{"Name":"K. M. Cripe Company","Address":"58 Main Street","City":"Forest","State":"IN","Years_of_Operation":"&lt;--1978-1984--&gt;","Latitude":"40.373648","Longitude":"-86.3327748"},"coordinates":[5077,6472]},{"type":"Point","properties":{"Name":"George F. Evans","Address":"","City":"Forest","State":"IN","Years_of_Operation":"","Latitude":"40.373648","Longitude":"-86.3327748"},"coordinates":[5077,6472]},{"type":"Point","properties":{"Name":"Elpers Motor Company (Inc.)","Address":"John Street & Highway 41","City":"Fort Branch","State":"IN","Years_of_Operation":"&lt;--1973-1984--&gt;","Latitude":"38.24999","Longitude":"-87.56811"},"coordinates":[1080,953]},{"type":"Point","properties":{"Name":"Viberg & McMaken","Address":"","City":"Fort Wayne","State":"IN","Years_of_Operation":"&lt;--1910--&gt;","Latitude":"41.07747","Longitude":"-85.13749"},"coordinates":[8944,8301]},{"type":"Point","properties":{"Name":"Geo. A. Houser & Company","Address":"","City":"Fort Wayne","State":"IN","Years_of_Operation":"&lt;--1911-1912--&gt;","Latitude":"41.07747","Longitude":"-85.13749"},"coordinates":[8944,8301]},{"type":"Point","properties":{"Name":"Adams & Shew","Address":"213 East Columbia Street","City":"Fort Wayne","State":"IN","Years_of_Operation":"&lt;--1919","Latitude":"41.08129","Longitude":"-85.13338"},"coordinates":[8957,8311]},{"type":"Point","properties":{"Name":"Mitchell-Robinson Tractor Company","Address":"325 East Columbia Street","City":"Fort Wayne","State":"IN","Years_of_Operation":"&lt;--1946-1948--&gt;","Latitude":"41.08129","Longitude":"-85.13338"},"coordinates":[8957,8311]},{"type":"Point","properties":{"Name":"Indiana Equipment Company, Inc.","Address":"1139 California Road","City":"Fort Wayne","State":"IN","Years_of_Operation":"&lt;--1957--&gt;","Latitude":"41.11856","Longitude":"-85.12621"},"coordinates":[8980,8408]},{"type":"Point","properties":{"Name":"Indiana Equipment Company, Inc.","Address":"414 West Coliseum Blvd.","City":"Fort Wayne","State":"IN","Years_of_Operation":"&lt;--1979--&gt;","Latitude":"41.11813","Longitude":"-85.14535"},"coordinates":[8918,8407]},{"type":"Point","properties":{"Name":"Don Ayers Pontiac","Address":"4740 Lima Road","City":"Fort Wayne","State":"IN","Years_of_Operation":"&lt;--1973-1977--&gt;","Latitude":"41.1214","Longitude":"-85.1518"},"coordinates":[8898,8415]},{"type":"Point","properties":{"Name":"International Harvester Company","Address":"220 East Jefferson Street","City":"Fort Wayne","State":"IN","Years_of_Operation":"&lt;--1946--&gt;","Latitude":"41.07779","Longitude":"-85.12758"},"coordinates":[8976,8302]},{"type":"Point","properties":{"Name":"International Harvester Company","Address":"207 East Superior Street","City":"Fort Wayne","State":"IN","Years_of_Operation":"&lt;--1946-1953","Latitude":"41.08281","Longitude":"-85.1374"},"coordinates":[8944,8315]},{"type":"Point","properties":{"Name":"International Harvester Company ~ Truck Branch","Address":"333 South Clinton Street","City":"Fort Wayne","State":"IN","Years_of_Operation":"1953-1980--&gt;","Latitude":"41.08413","Longitude":"-85.13916"},"coordinates":[8938,8319]},{"type":"Point","properties":{"Name":"Lincolnway International Trucks (Inc.)","Address":"333 South Clinton Street; 2807 Goshen Road","City":"Fort Wayne","State":"IN","Years_of_Operation":"&lt;--1984-1990--&gt;","Latitude":"41.08413","Longitude":"-85.13916"},"coordinates":[8938,8319]},{"type":"Point","properties":{"Name":"P., M. & B. Hardware Company","Address":"","City":"Fortville","State":"IN","Years_of_Operation":"&lt;--1911--&gt;","Latitude":"39.93136","Longitude":"-85.84796"},"coordinates":[6645,5323]},{"type":"Point","properties":{"Name":"Wilkinson Motors, Inc.","Address":"","City":"Fortville","State":"IN","Years_of_Operation":"&lt;--1958--&gt;","Latitude":"39.93136","Longitude":"-85.84796"},"coordinates":[6645,5323]},{"type":"Point","properties":{"Name":"Sheldon's Garage","Address":"","City":"Fortville","State":"IN","Years_of_Operation":"&lt;--1962--&gt;","Latitude":"39.93136","Longitude":"-85.84796"},"coordinates":[6645,5323]},{"type":"Point","properties":{"Name":"Ratliff-Rash Motors","Address":"","City":"Fortville","State":"IN","Years_of_Operation":"&lt;--1964--&gt;","Latitude":"39.93136","Longitude":"-85.84796"},"coordinates":[6645,5323]},{"type":"Point","properties":{"Name":"Rash Motors, Inc.","Address":"","City":"Fortville","State":"IN","Years_of_Operation":"&lt;--1967--&gt;","Latitude":"39.93136","Longitude":"-85.84796"},"coordinates":[6645,5323]},{"type":"Point","properties":{"Name":"Bates & Anderson","Address":"","City":"Fowler","State":"IN","Years_of_Operation":"&lt;--1917--&gt;","Latitude":"40.61767","Longitude":"-87.32345"},"coordinates":[1872,7106]},{"type":"Point","properties":{"Name":"Hoss & Cassidy","Address":"","City":"Fowler","State":"IN","Years_of_Operation":"&lt;--1937--&gt;","Latitude":"40.61767","Longitude":"-87.32345"},"coordinates":[1872,7106]},{"type":"Point","properties":{"Name":"Wm. Christopher","Address":"","City":"Fowler","State":"IN","Years_of_Operation":"&lt;--1947","Latitude":"40.61767","Longitude":"-87.32345"},"coordinates":[1872,7106]},{"type":"Point","properties":{"Name":"Goetz Bros. Implement Company, Inc. / Goetz Bros., Inc.","Address":"810 South Washington Avenue","City":"Fowler","State":"IN","Years_of_Operation":"&lt;--1948-1984--&gt;","Latitude":"40.6172","Longitude":"-87.32345"},"coordinates":[1872,7105]},{"type":"Point","properties":{"Name":"Francesville Motor Company, Inc.","Address":"","City":"Francesville","State":"IN","Years_of_Operation":"&lt;--1948-1971--&gt;","Latitude":"40.98524","Longitude":"-86.88362"},"coordinates":[3295,8062]},{"type":"Point","properties":{"Name":"Bucher Sales, Inc.","Address":"","City":"Francesville","State":"IN","Years_of_Operation":"&lt;--1977--&gt;","Latitude":"40.98524","Longitude":"-86.88362"},"coordinates":[3295,8062]},{"type":"Point","properties":{"Name":"Swets Farm Equipment, Inc","Address":"West 300 South & South 1450 West","City":"Francesville","State":"IN","Years_of_Operation":"&lt;--1979--&gt;","Latitude":"41.01203","Longitude":"-86.88343"},"coordinates":[3295,8131]},{"type":"Point","properties":{"Name":"Kenney Farm Implement, Inc.","Address":"Highway 421","City":"Francesville","State":"IN","Years_of_Operation":"&lt;--1984-1986--&gt;","Latitude":"40.98246","Longitude":"-86.89148"},"coordinates":[3269,8054]},{"type":"Point","properties":{"Name":"Bird & Son","Address":"","City":"Frankfort","State":"IN","Years_of_Operation":"&lt;--1936--&gt;","Latitude":"40.2797","Longitude":"-86.51066"},"coordinates":[4501,6228]},{"type":"Point","properties":{"Name":"Frankfort Implement & Truck Sales","Address":"","City":"Frankfort","State":"IN","Years_of_Operation":"&lt;--1948-1969--&gt;","Latitude":"40.2797","Longitude":"-86.51066"},"coordinates":[4501,6228]},{"type":"Point","properties":{"Name":"Fullerton Equipment (Inc.)","Address":"Highway 28 West","City":"Frankfort","State":"IN","Years_of_Operation":"&lt;--1973-1984--&gt;","Latitude":"40.2797","Longitude":"-86.51066"},"coordinates":[4501,6228]},{"type":"Point","properties":{"Name":"Deer & Son","Address":"","City":"Franklin","State":"IN","Years_of_Operation":"&lt;--1948-1964--&gt;","Latitude":"39.49444","Longitude":"-86.06667"},"coordinates":[5938,4187]},{"type":"Point","properties":{"Name":"Potter Equipment, Inc.","Address":"3500 North Morton Street","City":"Franklin","State":"IN","Years_of_Operation":"&lt;--1979-1984--&gt;","Latitude":"39.52581","Longitude":"-86.08017"},"coordinates":[5894,4269]},{"type":"Point","properties":{"Name":"H. M. Rainforth","Address":"","City":"Fredonia","State":"IN","Years_of_Operation":"&lt;--1946","Latitude":"38.1781198","Longitude":"-86.3830336"},"coordinates":[4914,766]},{"type":"Point","properties":{"Name":"H. S. Pielemeir","Address":"","City":"Freelandville","State":"IN","Years_of_Operation":"&lt;--1925--&gt;","Latitude":"38.86484","Longitude":"-87.30576"},"coordinates":[1929,2551]},{"type":"Point","properties":{"Name":"Freelandville Implement Company","Address":"","City":"Freelandville","State":"IN","Years_of_Operation":"&lt;--1948-1969--&gt;","Latitude":"38.86484","Longitude":"-87.30576"},"coordinates":[1929,2551]},{"type":"Point","properties":{"Name":"Freelandville Farm Service(s), Inc.","Address":"Main Street","City":"Freelandville","State":"IN","Years_of_Operation":"&lt;--1979-1984--&gt;","Latitude":"38.8647679","Longitude":"-87.3058492"},"coordinates":[1929,2551]},{"type":"Point","properties":{"Name":"O. R. Mann","Address":"","City":"Freetown","State":"IN","Years_of_Operation":"&lt;--1944","Latitude":"38.97213","Longitude":"-86.13439"},"coordinates":[5719,2830]},{"type":"Point","properties":{"Name":"Deaver's Garage","Address":"","City":"Freetown","State":"IN","Years_of_Operation":"&lt;--1958--&gt;","Latitude":"38.97213","Longitude":"-86.13439"},"coordinates":[5719,2830]},{"type":"Point","properties":{"Name":"F. B. McNaughton (& Son)","Address":"","City":"Fremont","State":"IN","Years_of_Operation":"&lt;--1948-1969--&gt;","Latitude":"41.73078","Longitude":"-84.93285"},"coordinates":[9606,9999]},{"type":"Point","properties":{"Name":"Fremont Equipment","Address":"105 South Wayne Street","City":"Fremont","State":"IN","Years_of_Operation":"&lt;--1973-1976--&gt;","Latitude":"41.73026","Longitude":"-84.93246"},"coordinates":[9607,9998]},{"type":"Point","properties":{"Name":"Ralph McCampbell & Son","Address":"","City":"French Lick","State":"IN","Years_of_Operation":"&lt;--1948-1949--&gt;","Latitude":"38.54777","Longitude":"-86.62317"},"coordinates":[4137,1727]},{"type":"Point","properties":{"Name":"Rapid Transit Company, Inc.","Address":"","City":"French Lick","State":"IN","Years_of_Operation":"&lt;--1967-1969--&gt;","Latitude":"38.54777","Longitude":"-86.62317"},"coordinates":[4137,1727]},{"type":"Point","properties":{"Name":"Siekerman & Geisler","Address":"","City":"Friendship","State":"IN","Years_of_Operation":"&lt;--1948--&gt;","Latitude":"39.02334","Longitude":"-85.24106"},"coordinates":[8609,2963]},{"type":"Point","properties":{"Name":"Rapp Rambler & Equipment Company","Address":"","City":"Garrett","State":"IN","Years_of_Operation":"&lt;--1962-1964--&gt;","Latitude":"41.35039","Longitude":"-85.13563"},"coordinates":[8950,9010]},{"type":"Point","properties":{"Name":"International Harvester Company","Address":"2017 Broadway","City":"Gary","State":"IN","Years_of_Operation":"&lt;--1950-1958--&gt;","Latitude":"41.60755","Longitude":"-87.33722"},"coordinates":[1827,9679]},{"type":"Point","properties":{"Name":"International Harvester Company","Address":"4040 West 4th Avenue","City":"Gary","State":"IN","Years_of_Operation":"&lt;--1962-1976--&gt;","Latitude":"41.60447","Longitude":"-87.38783"},"coordinates":[1663,9671]},{"type":"Point","properties":{"Name":"Burgess International Trucks, Inc.","Address":"4040 West 4th Avenue","City":"Gary","State":"IN","Years_of_Operation":"&lt;--1977-1984--&gt;","Latitude":"41.60447","Longitude":"-87.38783"},"coordinates":[1663,9671]},{"type":"Point","properties":{"Name":"Howell Tractor & Equipment Company","Address":"East 8th Avenue","City":"Gary","State":"IN","Years_of_Operation":"&lt;--1979--&gt;","Latitude":"41.59665","Longitude":"-87.32695"},"coordinates":[1860,9650]},{"type":"Point","properties":{"Name":"Parts & Trucks","Address":"1231 East Main Street","City":"Gas City","State":"IN","Years_of_Operation":"&lt;--1973-1979--&gt;","Latitude":"40.4874","Longitude":"-85.59061"},"coordinates":[7478,6768]},{"type":"Point","properties":{"Name":"Knotts & McKnight","Address":"","City":"Gaston","State":"IN","Years_of_Operation":"&lt;--1948-1958--&gt;","Latitude":"40.31375","Longitude":"-85.50067"},"coordinates":[7769,6316]},{"type":"Point","properties":{"Name":"Knotts Implement Company","Address":"","City":"Gaston","State":"IN","Years_of_Operation":"&lt;--1962-1969--&gt;","Latitude":"40.31375","Longitude":"-85.50067"},"coordinates":[7769,6316]},{"type":"Point","properties":{"Name":"Pippin Equipment Company","Address":"115 West Elm Street","City":"Gaston","State":"IN","Years_of_Operation":"&lt;--1979--&gt;","Latitude":"40.31368","Longitude":"-85.50153"},"coordinates":[7766,6316]},{"type":"Point","properties":{"Name":"Mitten Implement Company","Address":"","City":"Goodland","State":"IN","Years_of_Operation":"&lt;--1948--&gt;","Latitude":"40.76554","Longitude":"-87.29634"},"coordinates":[1959,7491]},{"type":"Point","properties":{"Name":"Burton Implement Company (Inc.)","Address":"Highway 24 West","City":"Goodland","State":"IN","Years_of_Operation":"&lt;--1958-1979--&gt;","Latitude":"40.76634","Longitude":"-87.37221"},"coordinates":[1714,7493]},{"type":"Point","properties":{"Name":"Burton-Minniear Farm Equipment, Inc.","Address":"Highway 24 West","City":"Goodland","State":"IN","Years_of_Operation":"&lt;--1984--&gt;","Latitude":"40.76634","Longitude":"-87.37221"},"coordinates":[1714,7493]},{"type":"Point","properties":{"Name":"McCormick-Deering Store","Address":"","City":"Goshen","State":"IN","Years_of_Operation":"&lt;--1944","Latitude":"41.58122","Longitude":"-85.83439"},"coordinates":[6689,9610]},{"type":"Point","properties":{"Name":"Goshen Implement Company (Inc.)","Address":"South 11th Street & East Madison Street","City":"Goshen","State":"IN","Years_of_Operation":"&lt;--1946-1958--&gt;","Latitude":"41.58245","Longitude":"-85.82312"},"coordinates":[6726,9614]},{"type":"Point","properties":{"Name":"Goshen Implement Company / Inc.","Address":"404 South 11th Street","City":"Goshen","State":"IN","Years_of_Operation":"&lt;--1979-1984--&gt;","Latitude":"41.58264","Longitude":"-85.8228"},"coordinates":[6727,9614]},{"type":"Point","properties":{"Name":"K & K Truck Sales, Inc.","Address":"427 West Pike Street","City":"Goshen","State":"IN","Years_of_Operation":"&lt;--1962-1990--&gt;","Latitude":"41.59046","Longitude":"-85.84267"},"coordinates":[6662,9634]},{"type":"Point","properties":{"Name":"Bunner & Eilert Company","Address":"","City":"Grandview","State":"IN","Years_of_Operation":"&lt;--1918--&gt;","Latitude":"37.93467","Longitude":"-86.98098"},"coordinates":[2980,134]},{"type":"Point","properties":{"Name":"Morrison Bros.","Address":"5 East Franklin Street","City":"Greencastle","State":"IN","Years_of_Operation":"&lt;--1923-1933--&gt;","Latitude":"39.64476","Longitude":"-86.85678"},"coordinates":[3381,4578]},{"type":"Point","properties":{"Name":"Weesner Implement Company","Address":"124 North Jackson Street","City":"Greencastle","State":"IN","Years_of_Operation":"&lt;--1938-1957--&gt;","Latitude":"39.64535","Longitude":"-86.86573"},"coordinates":[3353,4579]},{"type":"Point","properties":{"Name":"Ivor McMains","Address":"124 North Jackson Street; 200 North Indiana Street","City":"Greencastle","State":"IN","Years_of_Operation":"&lt;--1958-1965--&gt;","Latitude":"39.64535","Longitude":"-86.86573"},"coordinates":[3353,4579]},{"type":"Point","properties":{"Name":"Myron D. McMains","Address":"Highway 231 North","City":"Greencastle","State":"IN","Years_of_Operation":"&lt;--1967-1969--&gt;","Latitude":"39.66501","Longitude":"-86.87033"},"coordinates":[3338,4631]},{"type":"Point","properties":{"Name":"Hess Sales & Service","Address":"7-9 East Franklin Street","City":"Greencastle","State":"IN","Years_of_Operation":"1940-1958--&gt;","Latitude":"39.64497","Longitude":"-86.86401"},"coordinates":[3358,4578]},{"type":"Point","properties":{"Name":"Johnsons","Address":"","City":"Greenfield","State":"IN","Years_of_Operation":"&lt;--1948--&gt;","Latitude":"39.7852","Longitude":"-85.76927"},"coordinates":[6900,4943]},{"type":"Point","properties":{"Name":"Dill-Fields Company, Inc.","Address":"222 South Franklin Street","City":"Greenfield","State":"IN","Years_of_Operation":"&lt;--1958-1979--&gt;","Latitude":"39.78212","Longitude":"-85.78421"},"coordinates":[6852,4935]},{"type":"Point","properties":{"Name":"Ed Wieland's All American Cars","Address":"2222 West Main Street","City":"Greenfield","State":"IN","Years_of_Operation":"&lt;--1973-1974--&gt;","Latitude":"39.78704","Longitude":"-85.73217"},"coordinates":[7020,4948]},{"type":"Point","properties":{"Name":"Greenfield Farm Center, Inc.","Address":"","City":"Greenfield","State":"IN","Years_of_Operation":"&lt;--1984--&gt;","Latitude":"39.7852","Longitude":"-85.76927"},"coordinates":[6900,4943]},{"type":"Point","properties":{"Name":"Corbett & Rohe / Corbett-Rohe Company","Address":"","City":"Greensburg","State":"IN","Years_of_Operation":"&lt;--1912-1930--&gt;","Latitude":"39.33993","Longitude":"-85.4795"},"coordinates":[7837,3786]},{"type":"Point","properties":{"Name":"Greensburg Implement Company","Address":"135 West Main Street; North Michigan Avenue at Park Street ","City":"Greensburg","State":"IN","Years_of_Operation":"&lt;--1948--&gt;","Latitude":"39.33877","Longitude":"-85.48898"},"coordinates":[7807,3783]},{"type":"Point","properties":{"Name":"Rodgers Brothers, Inc.","Address":"","City":"Greensburg","State":"IN","Years_of_Operation":"&lt;--1958--&gt;","Latitude":"39.33993","Longitude":"-85.4795"},"coordinates":[7837,3786]},{"type":"Point","properties":{"Name":"Shirks Tree City Supply, Inc.","Address":"926 North Lincoln Street","City":"Greensburg","State":"IN","Years_of_Operation":"1962-1986","Latitude":"39.3466","Longitude":"-85.47933"},"coordinates":[7838,3803]},{"type":"Point","properties":{"Name":"W. O. Springer & Son","Address":"","City":"Greenwood","State":"IN","Years_of_Operation":"&lt;--1920-1931--&gt;","Latitude":"39.61358","Longitude":"-86.11788"},"coordinates":[5772,4497]},{"type":"Point","properties":{"Name":"Stinson & Gimmeson","Address":"","City":"Griffin","State":"IN","Years_of_Operation":"&lt;--1925--&gt;","Latitude":"38.22326","Longitude":"-87.90169"},"coordinates":[1,884]},{"type":"Point","properties":{"Name":"Lolkema Sales","Address":"405 East Ridge Road","City":"Griffith","State":"IN","Years_of_Operation":"&lt;--1962-1972--&gt;","Latitude":"41.55001","Longitude":"-87.42358"},"coordinates":[1548,9529]},{"type":"Point","properties":{"Name":"Hamlet Implement Company","Address":"","City":"Hamlet","State":"IN","Years_of_Operation":"&lt;--1916--&gt;","Latitude":"41.38126","Longitude":"-86.58549"},"coordinates":[4259,9091]},{"type":"Point","properties":{"Name":"Neville Hardware & Implement Company / Neville Hardware","Address":"","City":"Hamlet","State":"IN","Years_of_Operation":"&lt;--1948-1969--&gt;","Latitude":"41.38126","Longitude":"-86.58549"},"coordinates":[4259,9091]},{"type":"Point","properties":{"Name":"Lake County Auto Supply & Sales","Address":"Douglas Street & Hohman Avenue","City":"Hammond","State":"IN","Years_of_Operation":"&lt;--1919--&gt;","Latitude":"41.61486","Longitude":"-87.52203"},"coordinates":[1229,9698]},{"type":"Point","properties":{"Name":"Burgess Truck Sales & Service (Inc.)","Address":"7530 Calumet Avenue; 7020 Cline Avenue","City":"Hammond","State":"IN","Years_of_Operation":"&lt;--1958-1990--&gt;","Latitude":"41.54577","Longitude":"-87.43247"},"coordinates":[1519,9518]},{"type":"Point","properties":{"Name":"George V. Trinkle","Address":"","City":"Hardinsburg","State":"IN","Years_of_Operation":"","Latitude":"38.45953","Longitude":"-86.27705"},"coordinates":[5257,1498]},{"type":"Point","properties":{"Name":"Radcliff Service Station","Address":"","City":"Hardinsburg","State":"IN","Years_of_Operation":"","Latitude":"38.45953","Longitude":"-86.27705"},"coordinates":[5257,1498]},{"type":"Point","properties":{"Name":"Kriegbaum Implement Company","Address":"","City":"Hartford City","State":"IN","Years_of_Operation":"&lt;--1948-1958--&gt;","Latitude":"40.4513","Longitude":"-85.37017"},"coordinates":[8191,6674]},{"type":"Point","properties":{"Name":"H. & S. Sales, Inc.","Address":"","City":"Hartford City","State":"IN","Years_of_Operation":"&lt;--1962-1969--&gt;","Latitude":"40.4513","Longitude":"-85.37017"},"coordinates":[8191,6674]},{"type":"Point","properties":{"Name":"David Winchell","Address":"","City":"Hatfield","State":"IN","Years_of_Operation":"&lt;--1937-1946","Latitude":"37.90266","Longitude":"-87.22425"},"coordinates":[2193,51]},{"type":"Point","properties":{"Name":"Hatfield Implement Company","Address":"","City":"Hatfield","State":"IN","Years_of_Operation":"&lt;--1944","Latitude":"37.90266","Longitude":"-87.22425"},"coordinates":[2193,51]},{"type":"Point","properties":{"Name":"P. & E. Ten Barge","Address":"","City":"Haubstadt","State":"IN","Years_of_Operation":"&lt;--1946","Latitude":"38.20507","Longitude":"-87.5774"},"coordinates":[1050,836]},{"type":"Point","properties":{"Name":"Maxwell Implement Company","Address":"","City":"Hebron","State":"IN","Years_of_Operation":"&lt;--1918-1921--&gt;","Latitude":"41.3207","Longitude":"-87.20003"},"coordinates":[2271,8933]},{"type":"Point","properties":{"Name":"Helmsburg Garage & Hardware","Address":"","City":"Helmsburg","State":"IN","Years_of_Operation":"&lt;--1948--&gt;","Latitude":"39.36171","Longitude":"-86.2755"},"coordinates":[5262,3842]},{"type":"Point","properties":{"Name":"Suburban Rambler, Inc.","Address":"","City":"Highland","State":"IN","Years_of_Operation":"&lt;--1962-1964--&gt;","Latitude":"41.54754","Longitude":"-87.46162"},"coordinates":[1425,9523]},{"type":"Point","properties":{"Name":"Colonial Motors","Address":"","City":"Highland","State":"IN","Years_of_Operation":"&lt;--1969--&gt;","Latitude":"41.54754","Longitude":"-87.46162"},"coordinates":[1425,9523]},{"type":"Point","properties":{"Name":"Carriage Motors","Address":"9304 Indianapolis Avenue","City":"Highland","State":"IN","Years_of_Operation":"&lt;--1973--&gt;","Latitude":"39.80532","Longitude":"-86.16439"},"coordinates":[5622,4995]},{"type":"Point","properties":{"Name":"Schoon's Seed & Farm Equipment","Address":"","City":"Highland","State":"IN","Years_of_Operation":"","Latitude":"41.54754","Longitude":"-87.46162"},"coordinates":[1425,9523]},{"type":"Point","properties":{"Name":"Isakson Bros.","Address":"55 North Center Street","City":"Hobart","State":"IN","Years_of_Operation":"&lt;--1958--&gt;","Latitude":"39.72918","Longitude":"-86.10892"},"coordinates":[5801,4797]},{"type":"Point","properties":{"Name":"Clarence C. Finke","Address":"","City":"Holland","State":"IN","Years_of_Operation":"&lt;--1946","Latitude":"38.247","Longitude":"-87.03882"},"coordinates":[2793,945]},{"type":"Point","properties":{"Name":"Ed Richards","Address":"","City":"Hope","State":"IN","Years_of_Operation":"&lt;--1948--&gt;","Latitude":"39.3039397","Longitude":"-85.7713722"},"coordinates":[6893,3692]},{"type":"Point","properties":{"Name":"Schafer Implement Company","Address":"","City":"Hope","State":"IN","Years_of_Operation":"&lt;--1958--&gt;","Latitude":"39.3039397","Longitude":"-85.7713722"},"coordinates":[6893,3692]},{"type":"Point","properties":{"Name":"Hope Equipment Company, Inc.","Address":"","City":"Hope","State":"IN","Years_of_Operation":"&lt;--1962-1967--&gt;","Latitude":"39.3039397","Longitude":"-85.7713722"},"coordinates":[6893,3692]},{"type":"Point","properties":{"Name":"Noll Brothers","Address":"South Main Street at Parsonage Street","City":"Hudson","State":"IN","Years_of_Operation":"&lt;--1958-1976--&gt;","Latitude":"41.53304","Longitude":"-85.08094"},"coordinates":[9127,9485]},{"type":"Point","properties":{"Name":"Samuel Hieber","Address":"","City":"Huntertown","State":"IN","Years_of_Operation":"&lt;--1916--&gt;","Latitude":"41.22799","Longitude":"-85.17219"},"coordinates":[8832,8692]},{"type":"Point","properties":{"Name":"Hopf-Himsel, Inc.","Address":"Highway 231 North","City":"Huntingburg","State":"IN","Years_of_Operation":"&lt;--1979-1986--&gt;","Latitude":"38.29445","Longitude":"-86.95556"},"coordinates":[3062,1069]},{"type":"Point","properties":{"Name":"J. P. Kriegbaum & Sons","Address":"","City":"Huntington","State":"IN","Years_of_Operation":"1902-1927--&gt;","Latitude":"40.88279","Longitude":"-85.49732"},"coordinates":[7780,7795]},{"type":"Point","properties":{"Name":"Kriegbaum & Sons (Inc.)","Address":"224 East Franklin Street","City":"Huntington","State":"IN","Years_of_Operation":"&lt;--1948-1971--&gt;","Latitude":"40.88206","Longitude":"-85.49319"},"coordinates":[7793,7793]},{"type":"Point","properties":{"Name":"Bond Oldsmobile-Cadillac, Inc.","Address":"","City":"Huntington","State":"IN","Years_of_Operation":"&lt;--1962--&gt;","Latitude":"40.88279","Longitude":"-85.49732"},"coordinates":[7780,7795]},{"type":"Point","properties":{"Name":"D & B Motors","Address":"","City":"Huntington","State":"IN","Years_of_Operation":"&lt;--1964-1969--&gt;","Latitude":"40.88279","Longitude":"-85.49732"},"coordinates":[7780,7795]},{"type":"Point","properties":{"Name":"H. H. Niswander, Inc.","Address":"1885 North Jefferson Street","City":"Huntington","State":"IN","Years_of_Operation":"&lt;--1973-1977--&gt;","Latitude":"40.89187","Longitude":"-85.50413"},"coordinates":[7758,7819]},{"type":"Point","properties":{"Name":"Carl Reed Tractor Service","Address":"Grimm Road","City":"Huntington","State":"IN","Years_of_Operation":"&lt;--1979-1984--&gt;","Latitude":"40.90475","Longitude":"-85.54414"},"coordinates":[7628,7852]},{"type":"Point","properties":{"Name":"Steinhart Motor Truck Company","Address":"427 North Meridian Street","City":"Indianapolis","State":"IN","Years_of_Operation":"&lt;--1919-1920--&gt;","Latitude":"39.86177","Longitude":"-86.15731"},"coordinates":[5644,5142]},{"type":"Point","properties":{"Name":"J. D. Adams Company","Address":"","City":"Indianapolis","State":"IN","Years_of_Operation":"&lt;--1930-1943--&gt;","Latitude":"39.76845","Longitude":"-86.15621"},"coordinates":[5648,4899]},{"type":"Point","properties":{"Name":"Deer & Son","Address":"","City":"Indianapolis","State":"IN","Years_of_Operation":"&lt;--1945","Latitude":"39.76845","Longitude":"-86.15621"},"coordinates":[5648,4899]},{"type":"Point","properties":{"Name":"Dill Implement Company","Address":"1531 Indiana Avenue","City":"Indianapolis","State":"IN","Years_of_Operation":"&lt;--1948-1953--&gt;","Latitude":"39.7878","Longitude":"-86.18307"},"coordinates":[5561,4950]},{"type":"Point","properties":{"Name":"R. R. Howard Sales Company (Inc.)","Address":"3rd Floor, Guaranty Building; 20 North Meridian Street","City":"Indianapolis","State":"IN","Years_of_Operation":"&lt;--1951-1961--&gt;","Latitude":"39.7678","Longitude":"-86.15836"},"coordinates":[5641,4898]},{"type":"Point","properties":{"Name":"Indiana Equipment Company, Inc.","Address":"1244 West 16th Street","City":"Indianapolis","State":"IN","Years_of_Operation":"&lt;--1957--&gt;","Latitude":"39.78961","Longitude":"-86.18443"},"coordinates":[5557,4954]},{"type":"Point","properties":{"Name":"Indiana Equipment Company, Inc.","Address":"8410 Zionsville Road","City":"Indianapolis","State":"IN","Years_of_Operation":"&lt;--1979--&gt;","Latitude":"39.90748","Longitude":"-86.26085"},"coordinates":[5309,5261]},{"type":"Point","properties":{"Name":"McGinty Sales Company (Inc.)","Address":"301 North Delaware Street","City":"Indianapolis","State":"IN","Years_of_Operation":"&lt;--1958--&gt;","Latitude":"39.77167","Longitude":"-86.15434"},"coordinates":[5654,4908]},{"type":"Point","properties":{"Name":"Dennie Groomer","Address":"","City":"Indianapolis","State":"IN","Years_of_Operation":"&lt;--1962-1969--&gt;","Latitude":"39.76845","Longitude":"-86.15621"},"coordinates":[5648,4899]},{"type":"Point","properties":{"Name":"Utility Marine, Inc.","Address":"","City":"Indianapolis","State":"IN","Years_of_Operation":"&lt;--1962-1964--&gt;","Latitude":"39.76845","Longitude":"-86.15621"},"coordinates":[5648,4899]},{"type":"Point","properties":{"Name":"Epleys Sales & Service","Address":"","City":"Indianapolis","State":"IN","Years_of_Operation":"&lt;--1964--&gt;","Latitude":"39.76845","Longitude":"-86.15621"},"coordinates":[5648,4899]},{"type":"Point","properties":{"Name":"Trenny's, Inc.","Address":"","City":"Indianapolis","State":"IN","Years_of_Operation":"&lt;--1964--&gt;","Latitude":"39.76845","Longitude":"-86.15621"},"coordinates":[5648,4899]},{"type":"Point","properties":{"Name":"Eastwood 66 Service Center","Address":"","City":"Indianapolis","State":"IN","Years_of_Operation":"&lt;--1967--&gt;","Latitude":"39.76845","Longitude":"-86.15621"},"coordinates":[5648,4899]},{"type":"Point","properties":{"Name":"Truck World","Address":"","City":"Indianapolis","State":"IN","Years_of_Operation":"&lt;--1969--&gt;","Latitude":"39.76845","Longitude":"-86.15621"},"coordinates":[5648,4899]},{"type":"Point","properties":{"Name":"Wood Truck Sales","Address":"","City":"Indianapolis","State":"IN","Years_of_Operation":"&lt;--1969--&gt;","Latitude":"39.76845","Longitude":"-86.15621"},"coordinates":[5648,4899]},{"type":"Point","properties":{"Name":"Waite Enterprises","Address":"5350 North Keystone Avenue","City":"Indianapolis","State":"IN","Years_of_Operation":"&lt;--1973--&gt;","Latitude":"39.85047","Longitude":"-86.12362"},"coordinates":[5753,5113]},{"type":"Point","properties":{"Name":"International Harvester Company ~ Truck Branch","Address":"5730 Fortune Circle Drive West","City":"Indianapolis","State":"IN","Years_of_Operation":"&lt;--1973-1980--&gt;","Latitude":"39.72836","Longitude":"-86.2571"},"coordinates":[5322,4795]},{"type":"Point","properties":{"Name":"Speedway International Trucks (Inc.)","Address":"5730 Fortune Circle Drive West","City":"Indianapolis","State":"IN","Years_of_Operation":"&lt;--1984-1999--&gt;","Latitude":"39.72836","Longitude":"-86.2571"},"coordinates":[5322,4795]},{"type":"Point","properties":{"Name":"International Harvester Company","Address":"230 South Capitol Avenue","City":"Indianapolis","State":"IN","Years_of_Operation":"&lt;--1911--&gt;","Latitude":"39.68882","Longitude":"-86.16087"},"coordinates":[5633,4692]},{"type":"Point","properties":{"Name":"International Harvester Company","Address":"319 South Missouri Street","City":"Indianapolis","State":"IN","Years_of_Operation":"&lt;--1917-1922--&gt;","Latitude":"39.76262","Longitude":"-86.16575"},"coordinates":[5617,4884]},{"type":"Point","properties":{"Name":"International Harvester Company","Address":"425 Kentucky Avenue","City":"Indianapolis","State":"IN","Years_of_Operation":"&lt;--1935-1937--&gt;","Latitude":"39.7607","Longitude":"-86.16817"},"coordinates":[5609,4879]},{"type":"Point","properties":{"Name":"International Harvester Company","Address":"1065 West Washington Street","City":"Indianapolis","State":"IN","Years_of_Operation":"&lt;--1958-1969--&gt;","Latitude":"39.76441","Longitude":"-86.17716"},"coordinates":[5580,4889]},{"type":"Point","properties":{"Name":"International Harvester Company ~ Truck Branch","Address":"3414 East Washington Street","City":"Indianapolis","State":"IN","Years_of_Operation":"&lt;--1958-1980--&gt;","Latitude":"39.76959","Longitude":"-86.108"},"coordinates":[5804,4902]},{"type":"Point","properties":{"Name":"International Harvester Used Truck Center","Address":"3320 Washington Street","City":"Indianapolis","State":"IN","Years_of_Operation":"&lt;--1977-1980--&gt;","Latitude":"39.66443","Longitude":"-86.1251"},"coordinates":[5749,4629]},{"type":"Point","properties":{"Name":"International Harvester Used Truck Center","Address":"1429 Harding Court","City":"Indianapolis","State":"IN","Years_of_Operation":"&lt;--1982-1983--&gt;","Latitude":"39.69459","Longitude":"-86.18324"},"coordinates":[5561,4707]},{"type":"Point","properties":{"Name":"Segal Truck Sales","Address":"","City":"Indianapolis","State":"IN","Years_of_Operation":"","Latitude":"39.76845","Longitude":"-86.15621"},"coordinates":[5648,4899]},{"type":"Point","properties":{"Name":"Hovermale & Hedge","Address":"","City":"Jamestown","State":"IN","Years_of_Operation":"&lt;--1958-1969--&gt;","Latitude":"39.92565","Longitude":"-86.62706"},"coordinates":[4125,5308]},{"type":"Point","properties":{"Name":"Herman Criss","Address":"","City":"Jasonville","State":"IN","Years_of_Operation":"&lt;--1945","Latitude":"39.16308","Longitude":"-87.20006"},"coordinates":[2271,3326]},{"type":"Point","properties":{"Name":"Followell Bros.","Address":"","City":"Jasonville","State":"IN","Years_of_Operation":"&lt;--1948-1958--&gt;","Latitude":"39.16308","Longitude":"-87.20006"},"coordinates":[2271,3326]},{"type":"Point","properties":{"Name":"Geo. P. Wagner Company (Inc.)","Address":"","City":"Jasper","State":"IN","Years_of_Operation":"&lt;--1948-1962--&gt;","Latitude":"38.39148","Longitude":"-86.93176"},"coordinates":[3139,1321]},{"type":"Point","properties":{"Name":"Clapp Motor Sales","Address":"","City":"Jeffersonville","State":"IN","Years_of_Operation":"&lt;--1958--&gt;","Latitude":"38.29886","Longitude":"-85.72663"},"coordinates":[7038,1080]},{"type":"Point","properties":{"Name":"Bales Motor Company, Inc.","Address":"","City":"Jeffersonville","State":"IN","Years_of_Operation":"&lt;--1964-1969--&gt;","Latitude":"38.29886","Longitude":"-85.72663"},"coordinates":[7038,1080]},{"type":"Point","properties":{"Name":"Irons Sales Company","Address":"","City":"Kendallville","State":"IN","Years_of_Operation":"&lt;--1948--&gt;","Latitude":"41.44024","Longitude":"-85.26494"},"coordinates":[8532,9244]},{"type":"Point","properties":{"Name":"Truck-A-Teria, Inc.","Address":"","City":"Kendallville","State":"IN","Years_of_Operation":"&lt;--1958-1964--&gt;","Latitude":"41.44024","Longitude":"-85.26494"},"coordinates":[8532,9244]},{"type":"Point","properties":{"Name":"McClure Implement Company","Address":"Highway 6 West","City":"Kendallville","State":"IN","Years_of_Operation":"&lt;--1964-1979--&gt;","Latitude":"41.45241","Longitude":"-85.30897"},"coordinates":[8389,9276]},{"type":"Point","properties":{"Name":"C & H Truck Sales, Inc.","Address":"","City":"Kendallville","State":"IN","Years_of_Operation":"&lt;--1967-1969--&gt;","Latitude":"41.44024","Longitude":"-85.26494"},"coordinates":[8532,9244]},{"type":"Point","properties":{"Name":"Porter & Hoover","Address":"","City":"Kentland","State":"IN","Years_of_Operation":"&lt;--1958--&gt;","Latitude":"40.76803","Longitude":"-87.44528"},"coordinates":[1478,7497]},{"type":"Point","properties":{"Name":"Porter Sales & Service, Inc.","Address":"","City":"Kentland","State":"IN","Years_of_Operation":"&lt;--1962--&gt;","Latitude":"40.76803","Longitude":"-87.44528"},"coordinates":[1478,7497]},{"type":"Point","properties":{"Name":"Van Meter & Moore","Address":"","City":"Kewanna","State":"IN","Years_of_Operation":"&lt;--1936-1937--&gt;","Latitude":"41.0186","Longitude":"-86.41428"},"coordinates":[4813,8148]},{"type":"Point","properties":{"Name":"Chas. Van Meter (Company)","Address":"","City":"Kewanna","State":"IN","Years_of_Operation":"&lt;--1948-1959--&gt;","Latitude":"41.0186","Longitude":"-86.41428"},"coordinates":[4813,8148]},{"type":"Point","properties":{"Name":"Kewanna Implement Company (Inc.)","Address":"319 Main Street","City":"Kewanna","State":"IN","Years_of_Operation":"&lt;--1962-1979--&gt;","Latitude":"41.01856","Longitude":"-86.40942"},"coordinates":[4829,8148]},{"type":"Point","properties":{"Name":"Powell Implement (Inc.)","Address":"319 Main Street","City":"Kewanna","State":"IN","Years_of_Operation":"&lt;--1984-1985--&gt;","Latitude":"41.01856","Longitude":"-86.40942"},"coordinates":[4829,8148]},{"type":"Point","properties":{"Name":"Dillon & Ratcliff","Address":"","City":"Kingman","State":"IN","Years_of_Operation":"&lt;--1948--&gt;","Latitude":"39.9675","Longitude":"-87.28015"},"coordinates":[2012,5417]},{"type":"Point","properties":{"Name":"Woods Brothers","Address":"","City":"Kingman","State":"IN","Years_of_Operation":"&lt;--1958--&gt;","Latitude":"39.9675","Longitude":"-87.28015"},"coordinates":[2012,5417]},{"type":"Point","properties":{"Name":"Holmes Supply Company","Address":"","City":"Kingsbury","State":"IN","Years_of_Operation":"&lt;--1930-1948--&gt;","Latitude":"41.52946","Longitude":"-86.70082"},"coordinates":[3886,9476]},{"type":"Point","properties":{"Name":"Kirklin Motor Sales","Address":"","City":"Kirklin","State":"IN","Years_of_Operation":"&lt;--1948--&gt;","Latitude":"40.19308","Longitude":"-86.35766"},"coordinates":[4996,6003]},{"type":"Point","properties":{"Name":"Kepner Implement Company","Address":"","City":"Kirklin","State":"IN","Years_of_Operation":"&lt;--1954-1958--&gt;","Latitude":"40.19308","Longitude":"-86.35766"},"coordinates":[4996,6003]},{"type":"Point","properties":{"Name":"Willis Implement Company","Address":"224 East Main Street","City":"Knightstown","State":"IN","Years_of_Operation":"&lt;--1948-1966--&gt;","Latitude":"39.79579","Longitude":"-85.52405"},"coordinates":[7693,4970]},{"type":"Point","properties":{"Name":"Abner Motor Sales","Address":"536 West Main Street","City":"Knightstown","State":"IN","Years_of_Operation":"&lt;--1951-1964--&gt;","Latitude":"39.79496","Longitude":"-85.53425"},"coordinates":[7660,4968]},{"type":"Point","properties":{"Name":"Chas. Cook","Address":"","City":"Knox","State":"IN","Years_of_Operation":"&lt;--1948--&gt;","Latitude":"41.28806","Longitude":"-86.62068"},"coordinates":[4145,8848]},{"type":"Point","properties":{"Name":"Cook Equipment Company","Address":"","City":"Knox","State":"IN","Years_of_Operation":"","Latitude":"41.28806","Longitude":"-86.62068"},"coordinates":[4145,8848]},{"type":"Point","properties":{"Name":"Central Farm Equipment Corporation","Address":"","City":"Kokomo","State":"IN","Years_of_Operation":"&lt;--1935--&gt;","Latitude":"40.48651","Longitude":"-86.13124"},"coordinates":[5729,6765]},{"type":"Point","properties":{"Name":"Scott Henderson / Henderson's","Address":"1001 North Washington Street","City":"Kokomo","State":"IN","Years_of_Operation":"&lt;--1936--&gt;","Latitude":"40.49476","Longitude":"-86.13434"},"coordinates":[5719,6787]},{"type":"Point","properties":{"Name":"Bilsland-Pearch","Address":"615 North Washington Street","City":"Kokomo","State":"IN","Years_of_Operation":"&lt;--1948--&gt;","Latitude":"40.49136","Longitude":"-86.13425"},"coordinates":[5719,6778]},{"type":"Point","properties":{"Name":"Jack Pearch","Address":"615 North Washington Street","City":"Kokomo","State":"IN","Years_of_Operation":"&lt;--1954--&gt;","Latitude":"40.49136","Longitude":"-86.13425"},"coordinates":[5719,6778]},{"type":"Point","properties":{"Name":"Kokomo Truck & Tractor Sales","Address":"","City":"Kokomo","State":"IN","Years_of_Operation":"&lt;--1958--&gt;","Latitude":"40.48651","Longitude":"-86.13124"},"coordinates":[5729,6765]},{"type":"Point","properties":{"Name":"International Harvester Sales & Service","Address":"Highway 31 Bypass & Smith Road; 905 East Smith Road","City":"Kokomo","State":"IN","Years_of_Operation":"&lt;--1962-1974--&gt;","Latitude":"40.519703","Longitude":"-86.14261"},"coordinates":[5692,6852]},{"type":"Point","properties":{"Name":"Shepherd International (Inc.)","Address":"905 East Smith Road","City":"Kokomo","State":"IN","Years_of_Operation":"&lt;--1976-1979--&gt;","Latitude":"40.51999","Longitude":"-86.12694"},"coordinates":[5743,6852]},{"type":"Point","properties":{"Name":"McMahan-Thrasher, Inc.","Address":"605 Monroe Street","City":"La Porte","State":"IN","Years_of_Operation":"&lt;--1948--&gt;","Latitude":"41.6042","Longitude":"-86.71205"},"coordinates":[3850,9670]},{"type":"Point","properties":{"Name":"Howard & Hannon (Inc.)","Address":"1032 East Lincolnway","City":"La Porte","State":"IN","Years_of_Operation":"&lt;--1958-1984--&gt;","Latitude":"41.62047","Longitude":"-86.69905"},"coordinates":[3892,9712]},{"type":"Point","properties":{"Name":"Rembold Motors, Inc.","Address":"","City":"La Porte","State":"IN","Years_of_Operation":"&lt;--1962-1964--&gt;","Latitude":"41.60988","Longitude":"-86.7217"},"coordinates":[3819,9685]},{"type":"Point","properties":{"Name":"North Shore Sales","Address":"1301 Pine Lake Road","City":"La Porte","State":"IN","Years_of_Operation":"&lt;--1973-1977--&gt;","Latitude":"41.63366","Longitude":"-86.74151"},"coordinates":[3754,9747]},{"type":"Point","properties":{"Name":"Funk & Ashton","Address":"","City":"Laconia","State":"IN","Years_of_Operation":"&lt;--1944","Latitude":"38.03184","Longitude":"-86.08553"},"coordinates":[5877,386]},{"type":"Point","properties":{"Name":"Maxwell Implement Company","Address":"","City":"LaCrosse","State":"IN","Years_of_Operation":"&lt;--1918-1921--&gt;","Latitude":"41.145","Longitude":"-85.11697"},"coordinates":[9010,8477]},{"type":"Point","properties":{"Name":"Mitchell & Schoppel, Inc.","Address":"18800 Highway 421","City":"LaCrosse","State":"IN","Years_of_Operation":"&lt;--1984--&gt;","Latitude":"41.318056","Longitude":"-86.889722"},"coordinates":[3275,8926]},{"type":"Point","properties":{"Name":"McCormick-Deering Store","Address":"","City":"Lafayette","State":"IN","Years_of_Operation":"&lt;--1935-1937--&gt;","Latitude":"40.41733","Longitude":"-86.89062"},"coordinates":[3272,6586]},{"type":"Point","properties":{"Name":"McCormick Farm Equipment Store","Address":"405 Bypass 52 South","City":"Lafayette","State":"IN","Years_of_Operation":"&lt;--1956-1962--&gt;","Latitude":"40.416115","Longitude":"-86.857895"},"coordinates":[3378,6582]},{"type":"Point","properties":{"Name":"International Harvester Sales & Service","Address":"405 Bypass 52 South","City":"Lafayette","State":"IN","Years_of_Operation":"&lt;--1964-1976--&gt;","Latitude":"40.416115","Longitude":"-86.857895"},"coordinates":[3378,6582]},{"type":"Point","properties":{"Name":"Lyons International Equipment, Inc.","Address":"405 Sagamore Parkway South ","City":"Lafayette","State":"IN","Years_of_Operation":"&lt;--1979-1984--&gt;","Latitude":"40.41347","Longitude":"-86.85738"},"coordinates":[3380,6576]},{"type":"Point","properties":{"Name":"Lafayette Truck Center, Inc.","Address":"2700 Highway 25","City":"Lafayette","State":"IN","Years_of_Operation":"&lt;--1977-1974--&gt;","Latitude":"40.49871","Longitude":"-86.73615"},"coordinates":[3772,6797]},{"type":"Point","properties":{"Name":"Speedway International Trucks","Address":"2700 Highway 25","City":"Lafayette","State":"IN","Years_of_Operation":"&lt;--1990--&gt;","Latitude":"40.49871","Longitude":"-86.73615"},"coordinates":[3772,6797]},{"type":"Point","properties":{"Name":"Segal Truck Sales","Address":"","City":"Lafayette","State":"IN","Years_of_Operation":"","Latitude":"40.41733","Longitude":"-86.89062"},"coordinates":[3272,6586]},{"type":"Point","properties":{"Name":"Lafayette International Company","Address":"","City":"Lafayette","State":"IN","Years_of_Operation":"","Latitude":"40.41733","Longitude":"-86.89062"},"coordinates":[3272,6586]},{"type":"Point","properties":{"Name":"Hardman Hardware Company","Address":"","City":"LaFontaine","State":"IN","Years_of_Operation":"","Latitude":"40.7904","Longitude":"-85.81472"},"coordinates":[6753,7555]},{"type":"Point","properties":{"Name":"Norris Implement Company","Address":"","City":"LaGrange","State":"IN","Years_of_Operation":"&lt;--1948-1962--&gt;","Latitude":"41.64142","Longitude":"-85.41792"},"coordinates":[8037,9767]},{"type":"Point","properties":{"Name":"Norris Truck Service","Address":"125 Highway 20 West","City":"LaGrange","State":"IN","Years_of_Operation":"&lt;--1964-2017--&gt;","Latitude":"41.64069","Longitude":"-85.51193"},"coordinates":[7732,9765]},{"type":"Point","properties":{"Name":"G. & E. Christenson","Address":"","City":"Lake Village","State":"IN","Years_of_Operation":"&lt;--1929-1968--&gt;","Latitude":"41.13756","Longitude":"-87.44882"},"coordinates":[1466,8457]},{"type":"Point","properties":{"Name":"Wedeking & Nielsen","Address":"","City":"Lamar","State":"IN","Years_of_Operation":"&lt;--1948--&gt;","Latitude":"38.07029","Longitude":"-86.88584"},"coordinates":[3287,486]},{"type":"Point","properties":{"Name":"A. M. Evans","Address":"","City":"Lanesville","State":"IN","Years_of_Operation":"&lt;--1948--&gt;","Latitude":"38.2382","Longitude":"-85.98424"},"coordinates":[6204,923]},{"type":"Point","properties":{"Name":"Rivers Motor Sales","Address":"","City":"Lawrence","State":"IN","Years_of_Operation":"&lt;--1958--&gt;","Latitude":"39.84009","Longitude":"-86.01934"},"coordinates":[6091,5086]},{"type":"Point","properties":{"Name":"W. S. Richie","Address":"","City":"Lebanon","State":"IN","Years_of_Operation":"&lt;--1911--&gt;","Latitude":"40.04845","Longitude":"-86.46917"},"coordinates":[4636,5627]},{"type":"Point","properties":{"Name":"Lebanon Hardware Company","Address":"","City":"Lebanon","State":"IN","Years_of_Operation":"&lt;--1934--&gt;","Latitude":"40.04845","Longitude":"-86.46917"},"coordinates":[4636,5627]},{"type":"Point","properties":{"Name":"Shelby Implement Sales, Inc.","Address":"","City":"Lebanon","State":"IN","Years_of_Operation":"&lt;--1948","Latitude":"40.04845","Longitude":"-86.46917"},"coordinates":[4636,5627]},{"type":"Point","properties":{"Name":"Hall & Drakeford","Address":"316 West South Street","City":"Lebanon","State":"IN","Years_of_Operation":"&lt;--1948--&gt;","Latitude":"40.04694","Longitude":"-86.4711"},"coordinates":[4629,5623]},{"type":"Point","properties":{"Name":"Larr Equipment (Inc.)","Address":"Old Highway 52 South; 1940 Indianapolis Avenue","City":"Lebanon","State":"IN","Years_of_Operation":"&lt;--1964-1984--&gt;","Latitude":"39.0549","Longitude":"-87.44367"},"coordinates":[1483,3045]},{"type":"Point","properties":{"Name":"Scherer & Klopfenstein (Implement Company)","Address":"","City":"Leo","State":"IN","Years_of_Operation":"&lt;--1948--&gt;","Latitude":"41.22321","Longitude":"-85.01095"},"coordinates":[9353,8680]},{"type":"Point","properties":{"Name":"Scherer & Maxfield, Inc.","Address":"14520 Leo Road","City":"Leo","State":"IN","Years_of_Operation":"&lt;--1958-1984--&gt;","Latitude":"41.21991","Longitude":"-85.01322"},"coordinates":[9346,8671]},{"type":"Point","properties":{"Name":"V. J. Hardy","Address":"","City":"Lexington","State":"IN","Years_of_Operation":"","Latitude":"38.65238","Longitude":"-85.62523"},"coordinates":[7366,1999]},{"type":"Point","properties":{"Name":"Presnall Implement Company","Address":"","City":"Liberty","State":"IN","Years_of_Operation":"&lt;--1948--&gt;","Latitude":"39.6334","Longitude":"-84.92333"},"coordinates":[9637,4548]},{"type":"Point","properties":{"Name":"Alexander-Clark","Address":"","City":"Liberty","State":"IN","Years_of_Operation":"&lt;--1958--&gt;","Latitude":"39.6334","Longitude":"-84.92333"},"coordinates":[9637,4548]},{"type":"Point","properties":{"Name":"Rays Farm Equipment Sales & Service","Address":"","City":"Liberty","State":"IN","Years_of_Operation":"&lt;--1967--&gt;","Latitude":"39.6334","Longitude":"-84.92333"},"coordinates":[9637,4548]},{"type":"Point","properties":{"Name":"Moser Implement Company","Address":"South Lincolnway","City":"Ligonier","State":"IN","Years_of_Operation":"&lt;--1948--&gt;","Latitude":"41.42572","Longitude":"-85.58449"},"coordinates":[7498,9206]},{"type":"Point","properties":{"Name":"Bill Shaw's Garage","Address":"","City":"Ligonier","State":"IN","Years_of_Operation":"&lt;--1958--&gt;","Latitude":"41.46553","Longitude":"-85.58764"},"coordinates":[7487,9310]},{"type":"Point","properties":{"Name":"Yoder Cities Service","Address":"","City":"Ligonier","State":"IN","Years_of_Operation":"&lt;--1962-1964--&gt;","Latitude":"41.46553","Longitude":"-85.58764"},"coordinates":[7487,9310]},{"type":"Point","properties":{"Name":"Yoder's Citgo","Address":"","City":"Ligonier","State":"IN","Years_of_Operation":"&lt;--1967-1969--&gt;","Latitude":"41.46553","Longitude":"-85.58764"},"coordinates":[7487,9310]},{"type":"Point","properties":{"Name":"Leonard J. Guiffre Motor Sales","Address":"","City":"Linton","State":"IN","Years_of_Operation":"&lt;--1958--&gt;","Latitude":"39.0347666","Longitude":"-87.1658458"},"coordinates":[2382,2993]},{"type":"Point","properties":{"Name":"McDowell Bros.","Address":"","City":"Logansport","State":"IN","Years_of_Operation":"&lt;--1910--&gt;","Latitude":"40.75449","Longitude":"-86.363"},"coordinates":[4979,7462]},{"type":"Point","properties":{"Name":"Logansport International Company","Address":"","City":"Logansport","State":"IN","Years_of_Operation":"&lt;--1932--&gt;","Latitude":"40.75449","Longitude":"-86.363"},"coordinates":[4979,7462]},{"type":"Point","properties":{"Name":"McCormick-Deering Store","Address":"","City":"Logansport","State":"IN","Years_of_Operation":"&lt;--1944","Latitude":"40.75449","Longitude":"-86.363"},"coordinates":[4979,7462]},{"type":"Point","properties":{"Name":"Durbin Truck & Implement Store","Address":"510 High Street","City":"Logansport","State":"IN","Years_of_Operation":"&lt;--1948-1951--&gt;","Latitude":"40.76448","Longitude":"-86.29514"},"coordinates":[5199,7488]},{"type":"Point","properties":{"Name":"Jackson-Kitchel, Inc.","Address":"510 High Street; Highway 24 West","City":"Logansport","State":"IN","Years_of_Operation":"1953-1981","Latitude":"40.75199","Longitude":"-86.37114"},"coordinates":[4953,7455]},{"type":"Point","properties":{"Name":"Lincolnway International Trucks","Address":"Highway 24 West","City":"Logansport","State":"IN","Years_of_Operation":"&lt;--1990--&gt;","Latitude":"40.75199","Longitude":"-86.37114"},"coordinates":[4953,7455]},{"type":"Point","properties":{"Name":"Logansport Implement Company","Address":"","City":"Logansport","State":"IN","Years_of_Operation":"","Latitude":"40.75449","Longitude":"-86.363"},"coordinates":[4979,7462]},{"type":"Point","properties":{"Name":"John Huebner Hardware Company","Address":"","City":"Loogootee","State":"IN","Years_of_Operation":"&lt;--1911-1912--&gt;","Latitude":"38.674","Longitude":"-86.9144"},"coordinates":[3195,2055]},{"type":"Point","properties":{"Name":"Jeffers Garage","Address":"","City":"Loogootee","State":"IN","Years_of_Operation":"&lt;--1962-1964--&gt;","Latitude":"38.674","Longitude":"-86.9144"},"coordinates":[3195,2055]},{"type":"Point","properties":{"Name":"Harold Sorensen","Address":"","City":"Lowell","State":"IN","Years_of_Operation":"&lt;--1948--&gt;","Latitude":"41.2915","Longitude":"-87.41452"},"coordinates":[1577,8857]},{"type":"Point","properties":{"Name":"Bob Davis","Address":"","City":"Lowell","State":"IN","Years_of_Operation":"&lt;--1958--&gt;","Latitude":"41.2915","Longitude":"-87.41452"},"coordinates":[1577,8857]},{"type":"Point","properties":{"Name":"B & H Equipment","Address":"","City":"Lowell","State":"IN","Years_of_Operation":"&lt;--1962--&gt;","Latitude":"41.2915","Longitude":"-87.41452"},"coordinates":[1577,8857]},{"type":"Point","properties":{"Name":"Don Bales (Inc.)","Address":"10102 West 181st Avenue","City":"Lowell","State":"IN","Years_of_Operation":"&lt;--1964-1984--&gt;","Latitude":"41.29094","Longitude":"-87.45623"},"coordinates":[1442,8856]},{"type":"Point","properties":{"Name":"Murl Grounds","Address":"","City":"Lyons","State":"IN","Years_of_Operation":"&lt;--1939-1949--&gt;","Latitude":"38.98905","Longitude":"-87.08198"},"coordinates":[2653,2874]},{"type":"Point","properties":{"Name":"Benham Truck & Tractor Sales","Address":"","City":"Lyons","State":"IN","Years_of_Operation":"&lt;--1956-1958--&gt;","Latitude":"38.98905","Longitude":"-87.08198"},"coordinates":[2653,2874]},{"type":"Point","properties":{"Name":"Carvey Implement Sales","Address":"","City":"Macy","State":"IN","Years_of_Operation":"","Latitude":"40.95978","Longitude":"-86.1284"},"coordinates":[5738,7995]},{"type":"Point","properties":{"Name":"Wesbecker Implement & Truck Sales","Address":"602 West Main Street","City":"Madison","State":"IN","Years_of_Operation":"&lt;--1948-1984--&gt;","Latitude":"38.73762","Longitude":"-85.38599"},"coordinates":[8140,2220]},{"type":"Point","properties":{"Name":"Willard Cassidy","Address":"","City":"Magnet","State":"IN","Years_of_Operation":"&lt;--1946","Latitude":"38.09612","Longitude":"-86.46409"},"coordinates":[4652,553]},{"type":"Point","properties":{"Name":"Charles Nelson","Address":"","City":"Marion","State":"IN","Years_of_Operation":"&lt;--1911--&gt;","Latitude":"40.55187","Longitude":"-85.66814"},"coordinates":[7227,6935]},{"type":"Point","properties":{"Name":"J. B. Tippey","Address":"","City":"Marion","State":"IN","Years_of_Operation":"&lt;--1928--&gt;","Latitude":"40.55187","Longitude":"-85.66814"},"coordinates":[7227,6935]},{"type":"Point","properties":{"Name":"Kriegbaum Farm Equipment Company","Address":"","City":"Marion","State":"IN","Years_of_Operation":"&lt;--1948-1951--&gt;","Latitude":"40.55187","Longitude":"-85.66814"},"coordinates":[7227,6935]},{"type":"Point","properties":{"Name":"Kriegbaum Farm Equipment Company","Address":"1623 East 3rd Street","City":"Marion","State":"IN","Years_of_Operation":"&lt;--1979-1984--&gt;","Latitude":"40.55881","Longitude":"-85.65239"},"coordinates":[7278,6953]},{"type":"Point","properties":{"Name":"Barker & McClain","Address":"16th & Washington Street","City":"Marion","State":"IN","Years_of_Operation":"&lt;--1958--&gt;","Latitude":"40.54654","Longitude":"-85.65982"},"coordinates":[7254,6921]},{"type":"Point","properties":{"Name":"A & L Auto Sales","Address":"","City":"Marion","State":"IN","Years_of_Operation":"&lt;--1967-1969--&gt;","Latitude":"40.55187","Longitude":"-85.66814"},"coordinates":[7227,6935]},{"type":"Point","properties":{"Name":"Woods Garage","Address":"","City":"Markle","State":"IN","Years_of_Operation":"&lt;--1964-1967--&gt;","Latitude":"40.82459","Longitude":"-85.33887"},"coordinates":[8292,7644]},{"type":"Point","properties":{"Name":"W. H. Hardy & Son","Address":"","City":"Markleville","State":"IN","Years_of_Operation":"&lt;--1919-1958--&gt;","Latitude":"39.97753","Longitude":"-85.61457"},"coordinates":[7400,5443]},{"type":"Point","properties":{"Name":"Williams Implement Company","Address":"","City":"Martinsville","State":"IN","Years_of_Operation":"&lt;--1948--&gt;","Latitude":"39.42786","Longitude":"-86.42858"},"coordinates":[4767,4014]},{"type":"Point","properties":{"Name":"Hank's Tire & Battery","Address":"","City":"Martinsville","State":"IN","Years_of_Operation":"&lt;--1958--&gt;","Latitude":"39.42786","Longitude":"-86.42858"},"coordinates":[4767,4014]},{"type":"Point","properties":{"Name":"Hank's Sales & Service","Address":"435 West Morgan Street","City":"Martinsville","State":"IN","Years_of_Operation":"&lt;--1962-1976--&gt;","Latitude":"39.42755","Longitude":"-86.43449"},"coordinates":[4748,4013]},{"type":"Point","properties":{"Name":"Hank's International Sales & Service","Address":"435 West Morgan Street","City":"Martinsville","State":"IN","Years_of_Operation":"&lt;--1977-1979--&gt;","Latitude":"39.42755","Longitude":"-86.43449"},"coordinates":[4748,4013]},{"type":"Point","properties":{"Name":"Virgil Holl","Address":"","City":"Medaryville","State":"IN","Years_of_Operation":"&lt;--1948-1958--&gt;","Latitude":"41.08065","Longitude":"-86.89201"},"coordinates":[3268,8309]},{"type":"Point","properties":{"Name":"John W. Hamilton","Address":"","City":"Medora","State":"IN","Years_of_Operation":"&lt;--1913--&gt;","Latitude":"38.82518","Longitude":"-86.17021"},"coordinates":[5603,2448]},{"type":"Point","properties":{"Name":"Carr Township Service Station","Address":"","City":"Medora","State":"IN","Years_of_Operation":"&lt;--1947","Latitude":"38.82518","Longitude":"-86.17021"},"coordinates":[5603,2448]},{"type":"Point","properties":{"Name":"Max Smith & Son","Address":"","City":"Mentone","State":"IN","Years_of_Operation":"&lt;--1958-1962--&gt;","Latitude":"41.17525","Longitude":"-86.0392"},"coordinates":[6027,8555]},{"type":"Point","properties":{"Name":"McNutt & Musgrave","Address":"","City":"Merom","State":"IN","Years_of_Operation":"&lt;--1930--&gt;","Latitude":"39.05651","Longitude":"-87.56728"},"coordinates":[1083,3049]},{"type":"Point","properties":{"Name":"Harrison & Daniels","Address":"","City":"Merom","State":"IN","Years_of_Operation":"&lt;--1946-1948--&gt;","Latitude":"39.05651","Longitude":"-87.56728"},"coordinates":[1083,3049]},{"type":"Point","properties":{"Name":"Twin Motors Garage","Address":"","City":"Michigan City","State":"IN","Years_of_Operation":"&lt;--1942--&gt;","Latitude":"41.71873","Longitude":"-86.9009"},"coordinates":[3239,9968]},{"type":"Point","properties":{"Name":"A. C. Heitschmidt","Address":"","City":"Michigan City","State":"IN","Years_of_Operation":"&lt;--1944","Latitude":"41.71873","Longitude":"-86.9009"},"coordinates":[3239,9968]},{"type":"Point","properties":{"Name":"Moore Equipment Company (Inc.)","Address":"East Relief Highway","City":"Michigan City","State":"IN","Years_of_Operation":"&lt;--1948-1964--&gt;","Latitude":"41.66597","Longitude":"-86.98298"},"coordinates":[2973,9831]},{"type":"Point","properties":{"Name":"Truck Sales & Service Company, Inc.","Address":"321 Highway 20 East","City":"Michigan City","State":"IN","Years_of_Operation":"&lt;--1967-1973--&gt;","Latitude":"41.65439","Longitude":"-87.00486"},"coordinates":[2902,9800]},{"type":"Point","properties":{"Name":"RPM Truck Sales & Service","Address":"Highway 20 East of Highway 421","City":"Michigan City","State":"IN","Years_of_Operation":"&lt;--1974-1979--&gt;","Latitude":"41.66597","Longitude":"-86.98298"},"coordinates":[2973,9831]},{"type":"Point","properties":{"Name":"Kirkpatrick Service","Address":"10th Street & Locust Street","City":"Middletown","State":"IN","Years_of_Operation":"&lt;--1962-1977--&gt;","Latitude":"40.05409","Longitude":"-85.5421"},"coordinates":[7635,5642]},{"type":"Point","properties":{"Name":"R. L. Felker","Address":"","City":"Mifflin","State":"IN","Years_of_Operation":"","Latitude":"38.30909","Longitude":"-86.53035"},"coordinates":[4438,1107]},{"type":"Point","properties":{"Name":"George Schermer","Address":"","City":"Milan","State":"IN","Years_of_Operation":"&lt;--1944","Latitude":"39.12248","Longitude":"-85.12988"},"coordinates":[8968,3221]},{"type":"Point","properties":{"Name":"Steve Shorten Jr.","Address":"","City":"Milan","State":"IN","Years_of_Operation":"&lt;--1948--&gt;","Latitude":"39.12248","Longitude":"-85.12988"},"coordinates":[8968,3221]},{"type":"Point","properties":{"Name":"Sharp Hardware Company (Inc.)","Address":"","City":"Milford","State":"IN","Years_of_Operation":"&lt;--1948-1984--&gt;","Latitude":"41.41104","Longitude":"-85.85032"},"coordinates":[6638,9168]},{"type":"Point","properties":{"Name":"Millersburg Hardware Company","Address":"","City":"Millersburg","State":"IN","Years_of_Operation":"&lt;--1948--&gt;","Latitude":"41.52171","Longitude":"-85.69349"},"coordinates":[7145,9456]},{"type":"Point","properties":{"Name":"Patton & Overleese","Address":"","City":"Milroy","State":"IN","Years_of_Operation":"&lt;--1913--&gt;","Latitude":"39.41513","Longitude":"-85.46575"},"coordinates":[7882,3981]},{"type":"Point","properties":{"Name":"Mishawaka Equipment Company","Address":"","City":"Mishawaka","State":"IN","Years_of_Operation":"&lt;--1948--&gt;","Latitude":"41.66113","Longitude":"-86.1793"},"coordinates":[5573,9818]},{"type":"Point","properties":{"Name":"Jim Hibschman Pontiac","Address":"301 Lincolnway East","City":"Mishawaka","State":"IN","Years_of_Operation":"&lt;--1973-1974--&gt;","Latitude":"41.66083","Longitude":"-86.17763"},"coordinates":[5579,9817]},{"type":"Point","properties":{"Name":"Dennis Equipment Company","Address":"","City":"Milton","State":"IN","Years_of_Operation":"&lt;--1923--&gt;","Latitude":"39.78785","Longitude":"-85.15547"},"coordinates":[8886,4950]},{"type":"Point","properties":{"Name":"Newbold Garage","Address":"","City":"Monon","State":"IN","Years_of_Operation":"&lt;--1958-1962--&gt;","Latitude":"40.86802","Longitude":"-86.87889"},"coordinates":[3310,7757]},{"type":"Point","properties":{"Name":"E. M. Downey Hardware","Address":"","City":"Monroe City","State":"IN","Years_of_Operation":"","Latitude":"38.61477","Longitude":"-87.3536"},"coordinates":[1774,1901]},{"type":"Point","properties":{"Name":"Clem Hardware Company","Address":"","City":"Monroeville","State":"IN","Years_of_Operation":"&lt;--1948-1958--&gt;","Latitude":"40.97438","Longitude":"-84.86847"},"coordinates":[9814,8033]},{"type":"Point","properties":{"Name":"Meyer Auto Sales, Inc.","Address":"","City":"Monroeville","State":"IN","Years_of_Operation":"&lt;--1967-1969--&gt;","Latitude":"40.97438","Longitude":"-84.86847"},"coordinates":[9814,8033]},{"type":"Point","properties":{"Name":"Kenworthy & Son, Inc.","Address":"","City":"Monrovia","State":"IN","Years_of_Operation":"&lt;--1948-1969--&gt;","Latitude":"39.57886","Longitude":"-86.47999"},"coordinates":[4600,4407]},{"type":"Point","properties":{"Name":"Edw. C. Master","Address":"","City":"Monterey","State":"IN","Years_of_Operation":"&lt;--1948--&gt;","Latitude":"41.15649","Longitude":"-86.48229"},"coordinates":[4593,8507]},{"type":"Point","properties":{"Name":"Cutter Implement Company","Address":"","City":"Monterey","State":"IN","Years_of_Operation":"&lt;--1958--&gt;","Latitude":"41.15649","Longitude":"-86.48229"},"coordinates":[4593,8507]},{"type":"Point","properties":{"Name":"Kenney Implement Company / Kenney Implement, Inc. / Kenney Farm Implement, Inc.","Address":"301 North Main Street; 1091 West Broadway Street; 1105 West Broadway Street","City":"Monticello","State":"IN","Years_of_Operation":"&lt;--1948-1986--&gt;","Latitude":"40.74494","Longitude":"-86.76192"},"coordinates":[3688,7437]},{"type":"Point","properties":{"Name":"Palas Automotive Service","Address":"","City":"Monticello","State":"IN","Years_of_Operation":"&lt;--1962--&gt;","Latitude":"40.74615","Longitude":"-86.76195"},"coordinates":[3688,7440]},{"type":"Point","properties":{"Name":"Segal Truck Sales & Service (Inc.)","Address":"","City":"Monticello","State":"IN","Years_of_Operation":"&lt;--1964-1969--&gt;","Latitude":"40.74615","Longitude":"-86.76195"},"coordinates":[3688,7440]},{"type":"Point","properties":{"Name":"Jessup-Buford Hardware (Inc.)","Address":"","City":"Mooresville","State":"IN","Years_of_Operation":"&lt;--1948-1958--&gt;","Latitude":"39.61276","Longitude":"-86.37488"},"coordinates":[4941,4495]},{"type":"Point","properties":{"Name":"Tom Baker Motors","Address":"","City":"Mooresville","State":"IN","Years_of_Operation":"&lt;--1964--&gt;","Latitude":"39.61276","Longitude":"-86.37488"},"coordinates":[4941,4495]},{"type":"Point","properties":{"Name":"James L. Crawford","Address":"","City":"Morgantown","State":"IN","Years_of_Operation":"&lt;--1940--&gt;","Latitude":"39.37231","Longitude":"-86.25558"},"coordinates":[5327,3870]},{"type":"Point","properties":{"Name":"J. L. Crawford & Son","Address":"","City":"Morgantown","State":"IN","Years_of_Operation":"&lt;--1948-1958--&gt;","Latitude":"39.37231","Longitude":"-86.25558"},"coordinates":[5327,3870]},{"type":"Point","properties":{"Name":"Meyer Implement Company","Address":"","City":"Morocco","State":"IN","Years_of_Operation":"&lt;--1945","Latitude":"40.94797","Longitude":"-87.45019"},"coordinates":[1462,7965]},{"type":"Point","properties":{"Name":"Baird & Storey Implement Company","Address":"","City":"Morocco","State":"IN","Years_of_Operation":"&lt;--1948--&gt;","Latitude":"40.94797","Longitude":"-87.45019"},"coordinates":[1462,7965]},{"type":"Point","properties":{"Name":"Milt Storey Implement Company","Address":"55 North Clay Street","City":"Morocco","State":"IN","Years_of_Operation":"&lt;--1958-1984--&gt;","Latitude":"40.948","Longitude":"-87.45348"},"coordinates":[1451,7965]},{"type":"Point","properties":{"Name":"McWilliams Implement Company","Address":"","City":"Morristown","State":"IN","Years_of_Operation":"&lt;--1948-1969--&gt;","Latitude":"39.67171","Longitude":"-85.69923"},"coordinates":[7126,4648]},{"type":"Point","properties":{"Name":"Eilert Farm Equipment Company","Address":"","City":"Mt. Vernon","State":"IN","Years_of_Operation":"&lt;--1937-1939--&gt;","Latitude":"38.11217","Longitude":"-87.90197"},"coordinates":[0,595]},{"type":"Point","properties":{"Name":"Hasting Equipment Company (Inc.)","Address":"401 Mill Street","City":"Mt. Vernon","State":"IN","Years_of_Operation":"&lt;--1948-1984--&gt;","Latitude":"37.93181","Longitude":"-87.89861"},"coordinates":[11,126]},{"type":"Point","properties":{"Name":"Lindsay Truck & Implement Company","Address":"221 North Walnut Street","City":"Muncie","State":"IN","Years_of_Operation":"&lt;--1922-1923--&gt;","Latitude":"40.19472","Longitude":"-85.38643"},"coordinates":[8138,6007]},{"type":"Point","properties":{"Name":"Muncie International Company","Address":"","City":"Muncie","State":"IN","Years_of_Operation":"&lt;--1929-1932","Latitude":"40.19365","Longitude":"-85.38652"},"coordinates":[8138,6004]},{"type":"Point","properties":{"Name":"McCormick-Deering Store","Address":"120 West Willard Street","City":"Muncie","State":"IN","Years_of_Operation":"1932-1943","Latitude":"40.18581","Longitude":"-85.3873"},"coordinates":[8136,5984]},{"type":"Point","properties":{"Name":"C. E. Loker Truck & Implement Company, Inc.","Address":"2130 North Broadway (2130 North Dr. Martin Luther King Blvd.)","City":"Muncie","State":"IN","Years_of_Operation":"&lt;--1946-1964--&gt;","Latitude":"40.21153","Longitude":"-85.37335"},"coordinates":[8181,6051]},{"type":"Point","properties":{"Name":"Loker Truck & Appliance Company, Inc.","Address":"","City":"Muncie","State":"IN","Years_of_Operation":"&lt;--1967--&gt;","Latitude":"40.19365","Longitude":"-85.38652"},"coordinates":[8138,6004]},{"type":"Point","properties":{"Name":"Loker-Byrum Truck Sales","Address":"","City":"Muncie","State":"IN","Years_of_Operation":"&lt;--1969--&gt;","Latitude":"40.19365","Longitude":"-85.38652"},"coordinates":[8138,6004]},{"type":"Point","properties":{"Name":"Byrum International Truck Sales (Inc.)","Address":"2130 North Broadway (2130 North Dr. Martin Luther King Blvd.)","City":"Muncie","State":"IN","Years_of_Operation":"&lt;--1973-1979--&gt;","Latitude":"40.21153","Longitude":"-85.37335"},"coordinates":[8181,6051]},{"type":"Point","properties":{"Name":"Lehman International Truck Sales","Address":"3801 East McGalliard Road","City":"Muncie","State":"IN","Years_of_Operation":"&lt;--1984-1990--&gt;","Latitude":"40.21802","Longitude":"-85.34178"},"coordinates":[8283,6068]},{"type":"Point","properties":{"Name":"Miller Implement Company","Address":"","City":"Nappanee","State":"IN","Years_of_Operation":"&lt;--1948--&gt;","Latitude":"41.44265","Longitude":"-85.99995"},"coordinates":[6154,9250]},{"type":"Point","properties":{"Name":"Hartman Pontiac, Inc.","Address":"","City":"Nappanee","State":"IN","Years_of_Operation":"&lt;--1958--&gt;","Latitude":"41.44265","Longitude":"-85.99995"},"coordinates":[6154,9250]},{"type":"Point","properties":{"Name":"Gragg Equipment Company","Address":"505 South Main Street","City":"Nappanee","State":"IN","Years_of_Operation":"&lt;--1959--&gt;","Latitude":"41.43804","Longitude":"-86.00089"},"coordinates":[6151,9238]},{"type":"Point","properties":{"Name":"D. W. Greene Pontiac Sales, Inc.","Address":"","City":"Nappanee","State":"IN","Years_of_Operation":"&lt;--1962-1964--&gt;","Latitude":"41.44265","Longitude":"-85.99995"},"coordinates":[6154,9250]},{"type":"Point","properties":{"Name":"Ogle Garage","Address":"","City":"Nashville","State":"IN","Years_of_Operation":"&lt;--1958-1967--&gt;","Latitude":"39.2072708","Longitude":"-86.2511011"},"coordinates":[5341,3441]},{"type":"Point","properties":{"Name":"L. T. Horn & Sons","Address":"","City":"New Albany","State":"IN","Years_of_Operation":"&lt;--1925--&gt;","Latitude":"38.28351","Longitude":"-85.823"},"coordinates":[6726,1040]},{"type":"Point","properties":{"Name":"Dennis Truck & Tractor Company","Address":"","City":"New Albany","State":"IN","Years_of_Operation":"&lt;--1948-1949--&gt;","Latitude":"38.28351","Longitude":"-85.823"},"coordinates":[6726,1040]},{"type":"Point","properties":{"Name":"Ohio Valley Truck & Tractor Company","Address":"301 East Main Street; 213 East 4th Street","City":"New Albany","State":"IN","Years_of_Operation":"&lt;--1958-1984--&gt;","Latitude":"38.28483","Longitude":"-85.81882"},"coordinates":[6740,1044]},{"type":"Point","properties":{"Name":"Myers Implement Company","Address":"","City":"New Castle","State":"IN","Years_of_Operation":"&lt;--1940-1948--&gt;","Latitude":"39.92455","Longitude":"-85.36298"},"coordinates":[8214,5305]},{"type":"Point","properties":{"Name":"Howard S. Graver Motor Sales (Inc.)","Address":"","City":"New Castle","State":"IN","Years_of_Operation":"&lt;--1958-1969--&gt;","Latitude":"39.92455","Longitude":"-85.36298"},"coordinates":[8214,5305]},{"type":"Point","properties":{"Name":"Castle Lincoln-Mercury","Address":"405 North Memorial Drive","City":"New Castle","State":"IN","Years_of_Operation":"&lt;--1977--&gt;","Latitude":"39.93423","Longitude":"-85.38262"},"coordinates":[8151,5330]},{"type":"Point","properties":{"Name":"Dennis Equipment Company / Inc.","Address":"State Road 38 West","City":"New Castle","State":"IN","Years_of_Operation":"&lt;--1979-1984--&gt;","Latitude":"39.93141","Longitude":"-85.38165"},"coordinates":[8154,5323]},{"type":"Point","properties":{"Name":"Tri-State Imports","Address":"","City":"Newburgh","State":"IN","Years_of_Operation":"&lt;--1967--&gt;","Latitude":"37.94528","Longitude":"-87.4051"},"coordinates":[1608,161]},{"type":"Point","properties":{"Name":"McKelvey Hardware & Implement Store","Address":"","City":"Newtown","State":"IN","Years_of_Operation":"&lt;--1945","Latitude":"40.20476","Longitude":"-87.14865"},"coordinates":[2437,6033]},{"type":"Point","properties":{"Name":"C. N. Barker / C. N. Barker Hardware","Address":"","City":"Noblesville","State":"IN","Years_of_Operation":"&lt;--1923-1931--&gt;","Latitude":"40.0456","Longitude":"-86.01224"},"coordinates":[6114,5620]},{"type":"Point","properties":{"Name":"Barker Implement Sales","Address":"","City":"Noblesville","State":"IN","Years_of_Operation":"&lt;--1948-1962--&gt;","Latitude":"40.0456","Longitude":"-86.01224"},"coordinates":[6114,5620]},{"type":"Point","properties":{"Name":"Leeman Implement Sales, Inc.","Address":"","City":"Noblesville","State":"IN","Years_of_Operation":"&lt;--1964--&gt;","Latitude":"40.0456","Longitude":"-86.01224"},"coordinates":[6114,5620]},{"type":"Point","properties":{"Name":"Musselman's Farm Equipment, Inc.","Address":"Highways 32 & 38 East; 3355 East Conner Street","City":"Noblesville","State":"IN","Years_of_Operation":"&lt;--1969-1979--&gt;","Latitude":"40.04643","Longitude":"-86.01886"},"coordinates":[6092,5622]},{"type":"Point","properties":{"Name":"Ewart Supply Company","Address":"","City":"North Judson","State":"IN","Years_of_Operation":"&lt;--1942-1948--&gt;","Latitude":"41.30222","Longitude":"-86.72725"},"coordinates":[3801,8885]},{"type":"Point","properties":{"Name":"Grube Bros.","Address":"","City":"North Judson","State":"IN","Years_of_Operation":"&lt;--1958--&gt;","Latitude":"41.30222","Longitude":"-86.72725"},"coordinates":[3801,8885]},{"type":"Point","properties":{"Name":"McCormick Farm Equipment Store","Address":"Highway 10 West","City":"North Judson","State":"IN","Years_of_Operation":"&lt;--1959-1962","Latitude":"41.21504","Longitude":"-86.78559"},"coordinates":[3612,8659]},{"type":"Point","properties":{"Name":"International Harvester Sales & Service","Address":"Highway 10 West","City":"North Judson","State":"IN","Years_of_Operation":"1962-1969--&gt;","Latitude":"41.21504","Longitude":"-86.78559"},"coordinates":[3612,8659]},{"type":"Point","properties":{"Name":"North Liberty Silo & Concrete Company","Address":"","City":"North Liberty","State":"IN","Years_of_Operation":"&lt;--1933--&gt;","Latitude":"41.53466","Longitude":"-86.42695"},"coordinates":[4772,9489]},{"type":"Point","properties":{"Name":"Silo Company, Inc.","Address":"","City":"North Liberty","State":"IN","Years_of_Operation":"&lt;--1948--&gt;","Latitude":"41.53466","Longitude":"-86.42695"},"coordinates":[4772,9489]},{"type":"Point","properties":{"Name":"Russ Garage","Address":"","City":"North Liberty","State":"IN","Years_of_Operation":"&lt;--1958--&gt;","Latitude":"41.53466","Longitude":"-86.42695"},"coordinates":[4772,9489]},{"type":"Point","properties":{"Name":"Trobaugh Auto Parts & Garage","Address":"","City":"North Liberty","State":"IN","Years_of_Operation":"&lt;--1962--&gt;","Latitude":"41.53466","Longitude":"-86.42695"},"coordinates":[4772,9489]},{"type":"Point","properties":{"Name":"Hines Farm Equipment","Address":"112 West Main Street","City":"North Manchester","State":"IN","Years_of_Operation":"&lt;--1936-1938","Latitude":"40.9993","Longitude":"-85.77112"},"coordinates":[6894,8098]},{"type":"Point","properties":{"Name":"Bolinger Farm Equipment","Address":"808 West Main St.; 812 West Main St.; 1103 State Road 114 West","City":"North Manchester","State":"IN","Years_of_Operation":"1938-1948--&gt;","Latitude":"40.99916","Longitude":"-85.78065"},"coordinates":[6863,8098]},{"type":"Point","properties":{"Name":"North Manchester Farm Equipment (Company)","Address":"State Road 114 West","City":"North Manchester","State":"IN","Years_of_Operation":"&lt;--1953-1967--&gt;","Latitude":"40.99934","Longitude":"-85.7712"},"coordinates":[6894,8098]},{"type":"Point","properties":{"Name":"F. X. Klein","Address":"","City":"North Vernon","State":"IN","Years_of_Operation":"&lt;--1945","Latitude":"39.00373","Longitude":"-85.62677"},"coordinates":[7361,2912]},{"type":"Point","properties":{"Name":"Farm Implement Company","Address":"","City":"North Vernon","State":"IN","Years_of_Operation":"&lt;--1947","Latitude":"39.00373","Longitude":"-85.62677"},"coordinates":[7361,2912]},{"type":"Point","properties":{"Name":"Timperman-Wolfe Company, Inc.","Address":"Buckeye Street","City":"North Vernon","State":"IN","Years_of_Operation":"&lt;--1948-1949--&gt;","Latitude":"39.0084","Longitude":"-85.60432"},"coordinates":[7434,2924]},{"type":"Point","properties":{"Name":"Williams Equipment Company (Inc.)","Address":"525 Buckeye Street","City":"North Vernon","State":"IN","Years_of_Operation":"&lt;--1950-1967--&gt;","Latitude":"39.00538","Longitude":"-85.62212"},"coordinates":[7376,2916]},{"type":"Point","properties":{"Name":"Jeffers Hardware & Implement Company / Jeffers Implement Company","Address":"","City":"Oakville","State":"IN","Years_of_Operation":"&lt;--1948--&gt;","Latitude":"40.1139","Longitude":"-85.39239"},"coordinates":[8119,5797]},{"type":"Point","properties":{"Name":"Hoefling Truck & Tractor Company","Address":"Highway 58","City":"Odon","State":"IN","Years_of_Operation":"&lt;--1948-1979--&gt;","Latitude":"38.85216","Longitude":"-86.92263"},"coordinates":[3168,2518]},{"type":"Point","properties":{"Name":"N. G. Gloshen","Address":"","City":"Oldenburg","State":"IN","Years_of_Operation":"&lt;--1911--&gt;","Latitude":"39.33945","Longitude":"-85.20392"},"coordinates":[8729,3784]},{"type":"Point","properties":{"Name":"Struewing & Raver","Address":"","City":"Oldenburg","State":"IN","Years_of_Operation":"&lt;--1948--&gt;","Latitude":"39.33945","Longitude":"-85.20392"},"coordinates":[8729,3784]},{"type":"Point","properties":{"Name":"Lewis Implement Company","Address":"","City":"Orland","State":"IN","Years_of_Operation":"&lt;--1948--&gt;","Latitude":"41.7288","Longitude":"-85.17129"},"coordinates":[8835,9994]},{"type":"Point","properties":{"Name":"G. M. Norman & Roberts","Address":"","City":"Orleans","State":"IN","Years_of_Operation":"&lt;--1948--&gt;","Latitude":"38.65945","Longitude":"-86.45687"},"coordinates":[4675,2017]},{"type":"Point","properties":{"Name":"Ray R. Roberts & Sons, Inc.","Address":"","City":"Orleans","State":"IN","Years_of_Operation":"&lt;--1949-1950--&gt;","Latitude":"38.65945","Longitude":"-86.45687"},"coordinates":[4675,2017]},{"type":"Point","properties":{"Name":"Auffenberg Sales","Address":"","City":"Orleans","State":"IN","Years_of_Operation":"&lt;--1958-1962--&gt;","Latitude":"38.65945","Longitude":"-86.45687"},"coordinates":[4675,2017]},{"type":"Point","properties":{"Name":"Osgood Hardware Company","Address":"","City":"Osgood","State":"IN","Years_of_Operation":"&lt;--1915--&gt;","Latitude":"39.13211","Longitude":"-85.29248"},"coordinates":[8442,3246]},{"type":"Point","properties":{"Name":"T. R. McKinney & Company, Inc.","Address":"","City":"Otterbein","State":"IN","Years_of_Operation":"&lt;--1948--&gt;","Latitude":"40.49034","Longitude":"-87.09621"},"coordinates":[2607,6775]},{"type":"Point","properties":{"Name":"Byrd Implement Company","Address":"","City":"Otterbein","State":"IN","Years_of_Operation":"&lt;--1958--&gt;","Latitude":"40.49034","Longitude":"-87.09621"},"coordinates":[2607,6775]},{"type":"Point","properties":{"Name":"Clarence C. Finke","Address":"","City":"Otwell","State":"IN","Years_of_Operation":"&lt;--1941--&gt;","Latitude":"38.45535","Longitude":"-87.09303"},"coordinates":[2617,1487]},{"type":"Point","properties":{"Name":"Jacobi Service Station","Address":"","City":"Palmyra","State":"IN","Years_of_Operation":"&lt;--1948-1950--&gt;","Latitude":"38.4073","Longitude":"-86.10795"},"coordinates":[5804,1362]},{"type":"Point","properties":{"Name":"D. C. Radcliffe Hardware","Address":"","City":"Paoli","State":"IN","Years_of_Operation":"&lt;--1945","Latitude":"38.55821","Longitude":"-86.46845"},"coordinates":[4638,1754]},{"type":"Point","properties":{"Name":"Kenworthy & Son, Inc.","Address":"","City":"Paragon","State":"IN","Years_of_Operation":"","Latitude":"39.39428","Longitude":"-86.56246"},"coordinates":[4334,3927]},{"type":"Point","properties":{"Name":"J. D. Martin & Son","Address":"","City":"Pence","State":"IN","Years_of_Operation":"&lt;--1944","Latitude":"40.36125","Longitude":"-87.5116"},"coordinates":[1263,6440]},{"type":"Point","properties":{"Name":"Pence Implement Company","Address":"","City":"Pence","State":"IN","Years_of_Operation":"&lt;--1945","Latitude":"40.36125","Longitude":"-87.5116"},"coordinates":[1263,6440]},{"type":"Point","properties":{"Name":"Dubea & Sloan","Address":"","City":"Pence","State":"IN","Years_of_Operation":"&lt;--1948-1964--&gt;","Latitude":"40.36125","Longitude":"-87.5116"},"coordinates":[1263,6440]},{"type":"Point","properties":{"Name":"Pence Implement Company","Address":"","City":"Pence","State":"IN","Years_of_Operation":"&lt;--1967-1969--&gt;","Latitude":"40.36125","Longitude":"-87.5116"},"coordinates":[1263,6440]},{"type":"Point","properties":{"Name":"Sourbeer & Rodenberg","Address":"","City":"Pershing","State":"IN","Years_of_Operation":"&lt;--1929-1948--&gt;","Latitude":"41.09046","Longitude":"-86.32024"},"coordinates":[5117,8335]},{"type":"Point","properties":{"Name":"Marburger Bros.","Address":"","City":"Peru","State":"IN","Years_of_Operation":"&lt;--1927--&gt;","Latitude":"40.75376","Longitude":"-86.06912"},"coordinates":[5930,7460]},{"type":"Point","properties":{"Name":"Central Farm Equipment Corporation","Address":"","City":"Peru","State":"IN","Years_of_Operation":"&lt;--1930--&gt;","Latitude":"40.75376","Longitude":"-86.06912"},"coordinates":[5930,7460]},{"type":"Point","properties":{"Name":"Kepner Implement Company","Address":"","City":"Peru","State":"IN","Years_of_Operation":"&lt;--1948--&gt;","Latitude":"40.75376","Longitude":"-86.06912"},"coordinates":[5930,7460]},{"type":"Point","properties":{"Name":"McCormick Farm Equipment Store","Address":"Highways 24 & 31","City":"Peru","State":"IN","Years_of_Operation":"&lt;--1958-1962--&gt;","Latitude":"40.7535","Longitude":"-86.07012"},"coordinates":[5927,7459]},{"type":"Point","properties":{"Name":"International Harvester Sales & Service","Address":"Highways 24 & 31","City":"Peru","State":"IN","Years_of_Operation":"&lt;--1964-1974--&gt;","Latitude":"40.7535","Longitude":"-86.07012"},"coordinates":[5927,7459]},{"type":"Point","properties":{"Name":"Hartley Farm Equipment, Inc.","Address":"Highways 24 & 31","City":"Peru","State":"IN","Years_of_Operation":"&lt;--1976-1977--&gt;","Latitude":"40.7535","Longitude":"-86.07012"},"coordinates":[5927,7459]},{"type":"Point","properties":{"Name":"Klipsch Brothers","Address":"","City":"Petersburg","State":"IN","Years_of_Operation":"&lt;--1938--&gt;","Latitude":"38.49211","Longitude":"-87.27879"},"coordinates":[2016,1582]},{"type":"Point","properties":{"Name":"Klipsch Equipment Company (Inc.)","Address":"304 Main Street","City":"Petersburg","State":"IN","Years_of_Operation":"&lt;--1948-1979--&gt;","Latitude":"38.48976","Longitude":"-87.28307"},"coordinates":[2002,1576]},{"type":"Point","properties":{"Name":"Dale C. Duckwall","Address":"","City":"Pierceton","State":"IN","Years_of_Operation":"&lt;--1948-1958--&gt;","Latitude":"41.20007","Longitude":"-85.70526"},"coordinates":[7107,8620]},{"type":"Point","properties":{"Name":"C. E. Kesler","Address":"","City":"Pittsboro","State":"IN","Years_of_Operation":"&lt;--1912--&gt;","Latitude":"39.8639329","Longitude":"-86.4669429"},"coordinates":[4643,5147]},{"type":"Point","properties":{"Name":"Thurman Implement Company","Address":"","City":"Pine Village","State":"IN","Years_of_Operation":"&lt;--1945","Latitude":"40.45031","Longitude":"-87.25312"},"coordinates":[2099,6671]},{"type":"Point","properties":{"Name":"Pine Village Implement Company","Address":"Lafayette Street & Main Street","City":"Pine Village","State":"IN","Years_of_Operation":"&lt;--1948-1976--&gt;","Latitude":"40.45032","Longitude":"-87.2544"},"coordinates":[2095,6671]},{"type":"Point","properties":{"Name":"A. L. Williams","Address":"","City":"Pittsboro","State":"IN","Years_of_Operation":"&lt;--1945","Latitude":"39.86531","Longitude":"-86.46652"},"coordinates":[4644,5151]},{"type":"Point","properties":{"Name":"Costin Buick","Address":"2170 East Main Street","City":"Plainfield","State":"IN","Years_of_Operation":"&lt;--1974--&gt;","Latitude":"39.71205","Longitude":"-86.37273"},"coordinates":[4948,4753]},{"type":"Point","properties":{"Name":"Forrest Zumbaugh","Address":"","City":"Plymouth","State":"IN","Years_of_Operation":"&lt;--1948--&gt;","Latitude":"41.34354","Longitude":"-86.30954"},"coordinates":[5152,8993]},{"type":"Point","properties":{"Name":"West Side Truck & Machinery Sales","Address":"","City":"Plymouth","State":"IN","Years_of_Operation":"&lt;--1958-1964--&gt;","Latitude":"41.34354","Longitude":"-86.30954"},"coordinates":[5152,8993]},{"type":"Point","properties":{"Name":"Reese Equipment Company","Address":"523 East Jefferson Street","City":"Plymouth","State":"IN","Years_of_Operation":"&lt;--1974-1985--&gt;","Latitude":"41.34429","Longitude":"-86.303"},"coordinates":[5173,8995]},{"type":"Point","properties":{"Name":"North Central Agri-Power, Inc.","Address":"10303 Iris Road","City":"Plymouth","State":"IN","Years_of_Operation":"&lt;--2008-2012--&gt;","Latitude":"41.32729","Longitude":"-86.22176"},"coordinates":[5436,8950]},{"type":"Point","properties":{"Name":"Poland Hardware & Implement Company","Address":"","City":"Poland","State":"IN","Years_of_Operation":"&lt;--1948--&gt;","Latitude":"39.44409","Longitude":"-86.95077"},"coordinates":[3077,4056]},{"type":"Point","properties":{"Name":"Ertel & Powell","Address":"","City":"Portland","State":"IN","Years_of_Operation":"&lt;--1920--&gt;","Latitude":"40.43234","Longitude":"-84.97782"},"coordinates":[9460,6625]},{"type":"Point","properties":{"Name":"Sheffer Implement Company","Address":"227 West Water Street","City":"Portland","State":"IN","Years_of_Operation":"&lt;--1948-1955--&gt;","Latitude":"40.43207","Longitude":"-84.97999"},"coordinates":[9453,6624]},{"type":"Point","properties":{"Name":"Sheffer & Weinland Implement Company","Address":"227 West Water Street","City":"Portland","State":"IN","Years_of_Operation":"&lt;--1962-1979--&gt;","Latitude":"40.43207","Longitude":"-84.97999"},"coordinates":[9453,6624]},{"type":"Point","properties":{"Name":"P. Reising & Sons","Address":"","City":"Poseyville","State":"IN","Years_of_Operation":"&lt;--1916--&gt;","Latitude":"38.16977","Longitude":"-87.78323"},"coordinates":[384,745]},{"type":"Point","properties":{"Name":"Nix Brothers","Address":"","City":"Poseyville","State":"IN","Years_of_Operation":"&lt;--1928--&gt;","Latitude":"38.16977","Longitude":"-87.78323"},"coordinates":[384,745]},{"type":"Point","properties":{"Name":"Breiner & Uhde Implement Company","Address":"","City":"Poseyville","State":"IN","Years_of_Operation":"&lt;--1948-1969--&gt;","Latitude":"38.16977","Longitude":"-87.78323"},"coordinates":[384,745]},{"type":"Point","properties":{"Name":"Adams & Morrow (Inc.)","Address":"113 South Hall Street","City":"Princeton","State":"IN","Years_of_Operation":"&lt;--1930-1984--&gt;","Latitude":"38.34906","Longitude":"-87.5714"},"coordinates":[1069,1211]},{"type":"Point","properties":{"Name":"Southern Indiana Truck Sales","Address":"","City":"Princeton","State":"IN","Years_of_Operation":"&lt;--1964-1969--&gt;","Latitude":"38.35523","Longitude":"-87.56756"},"coordinates":[1082,1227]},{"type":"Point","properties":{"Name":"B. C. Fowler & Son","Address":"","City":"Remington","State":"IN","Years_of_Operation":"&lt;--1948--&gt;","Latitude":"40.76585","Longitude":"-87.15371"},"coordinates":[2421,7491]},{"type":"Point","properties":{"Name":"Holderly Implement (Company)","Address":"","City":"Remington","State":"IN","Years_of_Operation":"&lt;--1958-1969--&gt;","Latitude":"40.76585","Longitude":"-87.15371"},"coordinates":[2421,7491]},{"type":"Point","properties":{"Name":"Fowler & Holderly Implement Company","Address":"","City":"Remington","State":"IN","Years_of_Operation":"","Latitude":"40.76585","Longitude":"-87.15371"},"coordinates":[2421,7491]},{"type":"Point","properties":{"Name":"Brusnahan Implement Company","Address":"","City":"Rensselaer","State":"IN","Years_of_Operation":"&lt;--1948-1962--&gt;","Latitude":"40.93654","Longitude":"-87.15073"},"coordinates":[2430,7935]},{"type":"Point","properties":{"Name":"Elijah Sales & Service","Address":"","City":"Rensselaer","State":"IN","Years_of_Operation":"&lt;--1964--&gt;","Latitude":"40.93654","Longitude":"-87.15073"},"coordinates":[2430,7935]},{"type":"Point","properties":{"Name":"Wachs Sales & Service (Inc.)","Address":"","City":"Rensselaer","State":"IN","Years_of_Operation":"&lt;--1967-1969--&gt;","Latitude":"40.93654","Longitude":"-87.15073"},"coordinates":[2430,7935]},{"type":"Point","properties":{"Name":"Segal Truck Sales & Service (Inc.)","Address":"","City":"Reynolds","State":"IN","Years_of_Operation":"&lt;--1968--&gt;","Latitude":"40.74933","Longitude":"-86.87376"},"coordinates":[3327,7448]},{"type":"Point","properties":{"Name":"McCoy & Herrell Equipment Company","Address":"","City":"Richland City","State":"IN","Years_of_Operation":"&lt;--1967-1973--&gt;","Latitude":"37.94526","Longitude":"-87.16845"},"coordinates":[2373,161]},{"type":"Point","properties":{"Name":"Spencer Sales & Service (Inc.)","Address":"Highway 66","City":"Richland City","State":"IN","Years_of_Operation":"&lt;--1978-1984--&gt;","Latitude":"37.90466","Longitude":"-87.26058"},"coordinates":[2075,56]},{"type":"Point","properties":{"Name":"Chenoweth Auto Company","Address":"1107 Main Street","City":"Richmond","State":"IN","Years_of_Operation":"&lt;--1918-1919--&gt;","Latitude":"39.82889","Longitude":"-84.88732"},"coordinates":[9753,5056]},{"type":"Point","properties":{"Name":"Dennis Implement Company","Address":"13-15 South 7th Street","City":"Richmond","State":"IN","Years_of_Operation":"&lt;--1921-1923--&gt;","Latitude":"39.82044","Longitude":"-84.89287"},"coordinates":[9735,5034]},{"type":"Point","properties":{"Name":"McCormick-Deering Store","Address":"","City":"Richmond","State":"IN","Years_of_Operation":"&lt;--1943","Latitude":"39.82729","Longitude":"-84.89036"},"coordinates":[9743,5052]},{"type":"Point","properties":{"Name":"Howard Thompson","Address":"","City":"Richmond","State":"IN","Years_of_Operation":"&lt;--1945","Latitude":"39.82729","Longitude":"-84.89036"},"coordinates":[9743,5052]},{"type":"Point","properties":{"Name":"McCoys Truck & Implement Company, Inc.","Address":"","City":"Richmond","State":"IN","Years_of_Operation":"&lt;--1948","Latitude":"39.82729","Longitude":"-84.89036"},"coordinates":[9743,5052]},{"type":"Point","properties":{"Name":"Kenneth E. Williams, Inc.","Address":"","City":"Richmond","State":"IN","Years_of_Operation":"&lt;--1948--&gt;","Latitude":"39.82729","Longitude":"-84.89036"},"coordinates":[9743,5052]},{"type":"Point","properties":{"Name":"Whitewater Sales, Inc.","Address":"","City":"Richmond","State":"IN","Years_of_Operation":"&lt;--1958--&gt;","Latitude":"39.82729","Longitude":"-84.89036"},"coordinates":[9743,5052]},{"type":"Point","properties":{"Name":"Vivian Buick, Inc.","Address":"3200 East Main Street","City":"Richmond","State":"IN","Years_of_Operation":"&lt;--1962-1974--&gt;","Latitude":"39.83137","Longitude":"-84.85787"},"coordinates":[9849,5063]},{"type":"Point","properties":{"Name":"Bob Ross Buick, Inc.","Address":"3200 East Main Street","City":"Richmond","State":"IN","Years_of_Operation":"&lt;--1976-1980--&gt;","Latitude":"39.83137","Longitude":"-84.85787"},"coordinates":[9849,5063]},{"type":"Point","properties":{"Name":"Studebaker Buick, Inc.","Address":"3200 East Main Street","City":"Richmond","State":"IN","Years_of_Operation":"&lt;--1984-1990--&gt;","Latitude":"39.83137","Longitude":"-84.85787"},"coordinates":[9849,5063]},{"type":"Point","properties":{"Name":"Dickman & Sons, Inc.","Address":"3421 Highway 38","City":"Richmond","State":"IN","Years_of_Operation":"&lt;--1979-1980--&gt;","Latitude":"39.87669","Longitude":"-84.8876"},"coordinates":[9752,5181]},{"type":"Point","properties":{"Name":"International Harvester Company","Address":"170-174 Fort Wayne Avenue","City":"Richmond","State":"IN","Years_of_Operation":"&lt;--1923-1932--&gt;","Latitude":"39.834","Longitude":"-84.8928"},"coordinates":[9735,5070]},{"type":"Point","properties":{"Name":"Geo. B. Gibson","Address":"","City":"Rising Sun","State":"IN","Years_of_Operation":"&lt;--1911--&gt;","Latitude":"38.94984","Longitude":"-84.85527"},"coordinates":[9857,2772]},{"type":"Point","properties":{"Name":"Hanna & Wendling","Address":"","City":"Roachdale","State":"IN","Years_of_Operation":"&lt;--1931-1934--&gt;","Latitude":"39.84936","Longitude":"-86.79962"},"coordinates":[3566,5110]},{"type":"Point","properties":{"Name":"Charles Hanna & Sons","Address":"","City":"Roachdale","State":"IN","Years_of_Operation":"&lt;--1948--&gt;","Latitude":"39.84936","Longitude":"-86.79962"},"coordinates":[3566,5110]},{"type":"Point","properties":{"Name":"Moore Implement Company","Address":"","City":"Roachdale","State":"IN","Years_of_Operation":"&lt;--1958--&gt;","Latitude":"39.84936","Longitude":"-86.79962"},"coordinates":[3566,5110]},{"type":"Point","properties":{"Name":"Van Meter & Moore","Address":"116 West 9th Street","City":"Rochester","State":"IN","Years_of_Operation":"&lt;--1936-1937--&gt;","Latitude":"41.06502","Longitude":"-86.22885"},"coordinates":[5413,8269]},{"type":"Point","properties":{"Name":"Jones Implement Company (Inc.)","Address":"226 East 7th Street","City":"Rochester","State":"IN","Years_of_Operation":"&lt;--1948-1979--&gt;","Latitude":"41.06745","Longitude":"-86.21309"},"coordinates":[5464,8275]},{"type":"Point","properties":{"Name":"T. W. Ferguson","Address":"","City":"Rockport","State":"IN","Years_of_Operation":"&lt;--1947","Latitude":"37.88319","Longitude":"-87.05509"},"coordinates":[2740,0]},{"type":"Point","properties":{"Name":"Spencer Equipment Company","Address":"","City":"Rockport","State":"IN","Years_of_Operation":"&lt;--1948-1958--&gt;","Latitude":"37.88319","Longitude":"-87.05509"},"coordinates":[2740,0]},{"type":"Point","properties":{"Name":"McCoy & Herrell Equipment Company","Address":"","City":"Rockport","State":"IN","Years_of_Operation":"&lt;--1962-1964--&gt;","Latitude":"37.88319","Longitude":"-87.05509"},"coordinates":[2740,0]},{"type":"Point","properties":{"Name":"L. S. Canter","Address":"","City":"Rockville","State":"IN","Years_of_Operation":"&lt;--1945","Latitude":"40.01556","Longitude":"-86.93854"},"coordinates":[3117,5542]},{"type":"Point","properties":{"Name":"Lewis & Merry","Address":"","City":"Rockville","State":"IN","Years_of_Operation":"&lt;--1948--&gt;","Latitude":"40.01556","Longitude":"-86.93854"},"coordinates":[3117,5542]},{"type":"Point","properties":{"Name":"F. R. Merry","Address":"","City":"Rockville","State":"IN","Years_of_Operation":"&lt;--1958--&gt;","Latitude":"40.01556","Longitude":"-86.93854"},"coordinates":[3117,5542]},{"type":"Point","properties":{"Name":"Lewis Equipment Company","Address":"Highway 36 & Highway 41","City":"Rockville","State":"IN","Years_of_Operation":"&lt;--1964-1984--&gt;","Latitude":"39.75931","Longitude":"-86.43378"},"coordinates":[4750,4876]},{"type":"Point","properties":{"Name":"Butler & Peckels","Address":"","City":"Rolling Prairie","State":"IN","Years_of_Operation":"&lt;--1923--&gt;","Latitude":"41.67431","Longitude":"-86.61603"},"coordinates":[4160,9852]},{"type":"Point","properties":{"Name":"John David Groves","Address":"","City":"Rome","State":"IN","Years_of_Operation":"&lt;--1945","Latitude":"37.92833","Longitude":"-86.5331"},"coordinates":[4429,117]},{"type":"Point","properties":{"Name":"C. C. Parlon","Address":"","City":"Romney","State":"IN","Years_of_Operation":"&lt;--1916--&gt;","Latitude":"40.25339","Longitude":"-86.90379"},"coordinates":[3229,6160]},{"type":"Point","properties":{"Name":"Rosedale Implement Company","Address":"","City":"Rosedale","State":"IN","Years_of_Operation":"&lt;--1948-1964--&gt;","Latitude":"39.62264","Longitude":"-87.27922"},"coordinates":[2015,4520]},{"type":"Point","properties":{"Name":"Royal Center Hardware Company","Address":"","City":"Royal Center","State":"IN","Years_of_Operation":"&lt;--1928--&gt;","Latitude":"40.8644849","Longitude":"-86.4997266"},"coordinates":[4537,7748]},{"type":"Point","properties":{"Name":"George W. Peed","Address":"","City":"Royal Center","State":"IN","Years_of_Operation":"&lt;--1948-1951--&gt;","Latitude":"40.8644849","Longitude":"-86.4997266"},"coordinates":[4537,7748]},{"type":"Point","properties":{"Name":"Berkshire Implement Company","Address":"7510 North US 35","City":"Royal Center","State":"IN","Years_of_Operation":"&lt;--1958-1984--&gt;","Latitude":"40.8644849","Longitude":"-86.4997266"},"coordinates":[4537,7748]},{"type":"Point","properties":{"Name":"Rushville Implement Company","Address":"","City":"Rushville","State":"IN","Years_of_Operation":"&lt;--1922-1946","Latitude":"39.60819","Longitude":"-85.44475"},"coordinates":[7950,4483]},{"type":"Point","properties":{"Name":"Kirk Truck & Implement Company, Inc.","Address":"","City":"Rushville","State":"IN","Years_of_Operation":"&lt;--1948-1958--&gt;","Latitude":"39.60819","Longitude":"-85.44475"},"coordinates":[7950,4483]},{"type":"Point","properties":{"Name":"Busard Oldsmobile, Inc.","Address":"","City":"Rushville","State":"IN","Years_of_Operation":"&lt;--1962-1967--&gt;","Latitude":"39.60819","Longitude":"-85.44475"},"coordinates":[7950,4483]},{"type":"Point","properties":{"Name":"J. E. Dean Sales, Inc.","Address":"","City":"Rushville","State":"IN","Years_of_Operation":"&lt;--1967-1984--&gt;","Latitude":"39.60819","Longitude":"-85.44475"},"coordinates":[7950,4483]},{"type":"Point","properties":{"Name":"Gardner & Spencer","Address":"","City":"Russellville","State":"IN","Years_of_Operation":"&lt;--1919--&gt;","Latitude":"40.01556","Longitude":"-86.93854"},"coordinates":[3117,5542]},{"type":"Point","properties":{"Name":"Spencer Hardware Company","Address":"","City":"Russellville","State":"IN","Years_of_Operation":"&lt;--1922--&gt;","Latitude":"40.01556","Longitude":"-86.93854"},"coordinates":[3117,5542]},{"type":"Point","properties":{"Name":"J. M. Spencer","Address":"","City":"Russellville","State":"IN","Years_of_Operation":"&lt;--1931--&gt;","Latitude":"40.01556","Longitude":"-86.93854"},"coordinates":[3117,5542]},{"type":"Point","properties":{"Name":"Hester & Cooper","Address":"","City":"Russellville","State":"IN","Years_of_Operation":"&lt;--1948--&gt;","Latitude":"40.01556","Longitude":"-86.93854"},"coordinates":[3117,5542]},{"type":"Point","properties":{"Name":"Cooper Implement Company","Address":"","City":"Russellville","State":"IN","Years_of_Operation":"&lt;--1957-1964--&gt;","Latitude":"40.01556","Longitude":"-86.93854"},"coordinates":[3117,5542]},{"type":"Point","properties":{"Name":"Russellville Implement Sales, Inc.","Address":"17 Harrison Street; West Railroad Street","City":"Russellville","State":"IN","Years_of_Operation":"&lt;--1967-1984--&gt;","Latitude":"39.85471","Longitude":"-86.98376"},"coordinates":[2971,5124]},{"type":"Point","properties":{"Name":"O. L. Cook Sons","Address":"","City":"Salem","State":"IN","Years_of_Operation":"&lt;--1944","Latitude":"38.60574","Longitude":"-86.10025"},"coordinates":[5829,1878]},{"type":"Point","properties":{"Name":"Luckett Implement & Truck Company","Address":"","City":"Salem","State":"IN","Years_of_Operation":"&lt;--1948-1949--&gt;","Latitude":"38.60574","Longitude":"-86.10025"},"coordinates":[5829,1878]},{"type":"Point","properties":{"Name":"Luckett Implement Company","Address":"","City":"Salem","State":"IN","Years_of_Operation":"&lt;--1950--&gt;","Latitude":"38.60574","Longitude":"-86.10025"},"coordinates":[5829,1878]},{"type":"Point","properties":{"Name":"Cooks Garage & Implement Sales","Address":"","City":"Salem","State":"IN","Years_of_Operation":"&lt;--1962-1969--&gt;","Latitude":"38.60574","Longitude":"-86.10025"},"coordinates":[5829,1878]},{"type":"Point","properties":{"Name":"George W. B. McConnell","Address":"","City":"Scipio","State":"IN","Years_of_Operation":"1906-1912--&gt;","Latitude":"39.0791","Longitude":"-85.71704"},"coordinates":[7069,3108]},{"type":"Point","properties":{"Name":"M. N. Hardy & Son","Address":"","City":"Scottsburg","State":"IN","Years_of_Operation":"&lt;--1947","Latitude":"38.68563","Longitude":"-85.77845"},"coordinates":[6870,2085]},{"type":"Point","properties":{"Name":"Wells-Deal, Inc.","Address":"","City":"Scottsburg","State":"IN","Years_of_Operation":"&lt;--1948-1950--&gt;","Latitude":"38.68563","Longitude":"-85.77845"},"coordinates":[6870,2085]},{"type":"Point","properties":{"Name":"Jones Auto & Implement Company","Address":"","City":"Scottsburg","State":"IN","Years_of_Operation":"&lt;--1958--&gt;","Latitude":"38.68563","Longitude":"-85.77845"},"coordinates":[6870,2085]},{"type":"Point","properties":{"Name":"Wells-Deal, Inc.","Address":"","City":"Scottsburg","State":"IN","Years_of_Operation":"&lt;--1962-1969--&gt;","Latitude":"38.68563","Longitude":"-85.77845"},"coordinates":[6870,2085]},{"type":"Point","properties":{"Name":"Zimmerman Sales & Service","Address":"Highway 31 & Highway 356","City":"Scottsburg","State":"IN","Years_of_Operation":"&lt;--1977-1984--&gt;","Latitude":"38.68561","Longitude":"-85.77851"},"coordinates":[6870,2085]},{"type":"Point","properties":{"Name":"A. Diefenbach / A. Diefenbach & Son / A. Diefenbach, Inc.","Address":"128 South New Albany Avenue","City":"Sellersburg","State":"IN","Years_of_Operation":"&lt;--1936-1979--&gt;","Latitude":"38.39732","Longitude":"-85.75544"},"coordinates":[6945,1336]},{"type":"Point","properties":{"Name":"Breitfield Implement & Supply Company","Address":"","City":"Seymour","State":"IN","Years_of_Operation":"&lt;--1929--&gt;","Latitude":"38.95753","Longitude":"-85.88543"},"coordinates":[6524,2792]},{"type":"Point","properties":{"Name":"McCormick-Deering Store","Address":"","City":"Seymour","State":"IN","Years_of_Operation":"&lt;--1944","Latitude":"38.95753","Longitude":"-85.88543"},"coordinates":[6524,2792]},{"type":"Point","properties":{"Name":"Timperman Sales & Service, Inc.","Address":"Highway 50 West","City":"Seymour","State":"IN","Years_of_Operation":"&lt;--1948-1979--&gt;","Latitude":"38.93039","Longitude":"-85.94685"},"coordinates":[6325,2721]},{"type":"Point","properties":{"Name":"Cordes Hardware Company, Inc.","Address":"411 Agrico Lane","City":"Seymour","State":"IN","Years_of_Operation":"&lt;--1984--&gt;","Latitude":"38.96106","Longitude":"-85.86178"},"coordinates":[6601,2801]},{"type":"Point","properties":{"Name":"J. G. Romack & Sons","Address":"","City":"Sharpsville","State":"IN","Years_of_Operation":"&lt;--1948-1967--&gt;","Latitude":"40.37955","Longitude":"-86.08598"},"coordinates":[5875,6487]},{"type":"Point","properties":{"Name":"Earl Sirois & Son","Address":"","City":"Shelby","State":"IN","Years_of_Operation":"&lt;--1948-1958--&gt;","Latitude":"41.19534","Longitude":"-87.34307"},"coordinates":[1808,8608]},{"type":"Point","properties":{"Name":"Imel, Fraker & Company","Address":"","City":"Shelbyville","State":"IN","Years_of_Operation":"&lt;--1911--&gt;","Latitude":"39.52295","Longitude":"-85.77701"},"coordinates":[6875,4261]},{"type":"Point","properties":{"Name":"Quality Implement Company","Address":"","City":"Shelbyville","State":"IN","Years_of_Operation":"&lt;--1937--&gt;","Latitude":"39.52295","Longitude":"-85.77701"},"coordinates":[6875,4261]},{"type":"Point","properties":{"Name":"Carter Company","Address":"","City":"Shelbyville","State":"IN","Years_of_Operation":"&lt;--1948--&gt;","Latitude":"39.52295","Longitude":"-85.77701"},"coordinates":[6875,4261]},{"type":"Point","properties":{"Name":"M & W Motor Company","Address":"","City":"Shelbyville","State":"IN","Years_of_Operation":"&lt;--1953--&gt;","Latitude":"39.52295","Longitude":"-85.77701"},"coordinates":[6875,4261]},{"type":"Point","properties":{"Name":"McKee Truck & Implement Company","Address":"","City":"Shelbyville","State":"IN","Years_of_Operation":"&lt;--1958--&gt;","Latitude":"39.52295","Longitude":"-85.77701"},"coordinates":[6875,4261]},{"type":"Point","properties":{"Name":"Rodgers Brothers, Inc.","Address":"East Highway 421","City":"Shelbyville","State":"IN","Years_of_Operation":"&lt;--1962-1969--&gt;","Latitude":"39.5127","Longitude":"-85.71296"},"coordinates":[7082,4235]},{"type":"Point","properties":{"Name":"Comstock & Thompson","Address":"","City":"Shelbyville","State":"IN","Years_of_Operation":"","Latitude":"39.52295","Longitude":"-85.77701"},"coordinates":[6875,4261]},{"type":"Point","properties":{"Name":"McWilliams Carter Company","Address":"","City":"Shelbyville","State":"IN","Years_of_Operation":"","Latitude":"39.52295","Longitude":"-85.77701"},"coordinates":[6875,4261]},{"type":"Point","properties":{"Name":"O. T. Kercheval","Address":"South Main Street & East 2nd Street; 200 South Main Street","City":"Sheridan","State":"IN","Years_of_Operation":"&lt;--1914-1979--&gt;","Latitude":"40.13708","Longitude":"-86.22061"},"coordinates":[5440,5857]},{"type":"Point","properties":{"Name":"Larr & Adkins International, Inc.","Address":"200 South Main Street","City":"Sheridan","State":"IN","Years_of_Operation":"&lt;--1984--&gt;","Latitude":"40.13692","Longitude":"-86.22096"},"coordinates":[5439,5857]},{"type":"Point","properties":{"Name":"Duchemin Garage","Address":"","City":"Sheridan","State":"IN","Years_of_Operation":"&lt;--1962--&gt;","Latitude":"40.13706","Longitude":"-86.22305"},"coordinates":[5432,5857]},{"type":"Point","properties":{"Name":"Sheridan Truck & Supply","Address":"","City":"Sheridan","State":"IN","Years_of_Operation":"&lt;--1967-1969--&gt;","Latitude":"40.13706","Longitude":"-86.22305"},"coordinates":[5432,5857]},{"type":"Point","properties":{"Name":"Johnson & Chenoweth","Address":"","City":"Shoals","State":"IN","Years_of_Operation":"&lt;--1945","Latitude":"38.66878","Longitude":"-86.79435"},"coordinates":[3583,2042]},{"type":"Point","properties":{"Name":"Tridle & Circle","Address":"","City":"Sidney","State":"IN","Years_of_Operation":"&lt;--1911--&gt;","Latitude":"41.1048","Longitude":"-85.74341"},"coordinates":[6984,8372]},{"type":"Point","properties":{"Name":"Maxwell Implement Company","Address":"","City":"South Bend","State":"IN","Years_of_Operation":"&lt;--1917--&gt;","Latitude":"41.67503","Longitude":"-86.25196"},"coordinates":[5338,9854]},{"type":"Point","properties":{"Name":"Franklin Motor Car Company","Address":"517 Lincoln Way West","City":"South Bend","State":"IN","Years_of_Operation":"&lt;--1919--&gt;","Latitude":"41.70122","Longitude":"-86.32716"},"coordinates":[5095,9922]},{"type":"Point","properties":{"Name":"Hagedorn & Webster","Address":"216-222 East Jefferson Blvd.","City":"South Bend","State":"IN","Years_of_Operation":"&lt;--1920-1921--&gt;","Latitude":"41.67368","Longitude":"-86.24805"},"coordinates":[5351,9851]},{"type":"Point","properties":{"Name":"Indiana Equipment Company, Inc.","Address":"South Highway 31","City":"South Bend","State":"IN","Years_of_Operation":"&lt;--1957--&gt;","Latitude":"41.61248","Longitude":"-86.25409"},"coordinates":[5331,9692]},{"type":"Point","properties":{"Name":"Don Gilmer's Garage","Address":"","City":"South Bend","State":"IN","Years_of_Operation":"&lt;--1958-1962--&gt;","Latitude":"41.67503","Longitude":"-86.25196"},"coordinates":[5338,9854]},{"type":"Point","properties":{"Name":"Paul's Equipment Company","Address":"","City":"South Bend","State":"IN","Years_of_Operation":"&lt;--1971--&gt;","Latitude":"41.67503","Longitude":"-86.25196"},"coordinates":[5338,9854]},{"type":"Point","properties":{"Name":"International Harvester Company","Address":"4849 West Western Avenue","City":"South Bend","State":"IN","Years_of_Operation":"&lt;--1974-1979--&gt;","Latitude":"41.67284","Longitude":"-86.31545"},"coordinates":[5133,9848]},{"type":"Point","properties":{"Name":"Western International Trucks, Inc.","Address":"4849 West Western Avenue","City":"South Bend","State":"IN","Years_of_Operation":"&lt;--1984--&gt;","Latitude":"41.67284","Longitude":"-86.31545"},"coordinates":[5133,9848]},{"type":"Point","properties":{"Name":"Wise International Trucks, Inc.","Address":"4849 West Western Avenue","City":"South Bend","State":"IN","Years_of_Operation":"&lt;--1990--&gt;","Latitude":"41.67284","Longitude":"-86.31545"},"coordinates":[5133,9848]},{"type":"Point","properties":{"Name":"International Harvester Company","Address":"1202-1208 South Lafayette Blvd.","City":"South Bend","State":"IN","Years_of_Operation":"&lt;--1922--&gt;","Latitude":"41.66139","Longitude":"-86.25278"},"coordinates":[5336,9819]},{"type":"Point","properties":{"Name":"International Harvester Company","Address":"1319 South Lafayette Blvd.","City":"South Bend","State":"IN","Years_of_Operation":"&lt;--1958-1973--&gt;","Latitude":"41.6307","Longitude":"-86.25356"},"coordinates":[5333,9739]},{"type":"Point","properties":{"Name":"C & K Repair Service","Address":"","City":"South Whitley","State":"IN","Years_of_Operation":"&lt;--1962--&gt;","Latitude":"41.08454","Longitude":"-85.62792"},"coordinates":[7357,8320]},{"type":"Point","properties":{"Name":"Ralph Need","Address":"","City":"Spencer","State":"IN","Years_of_Operation":"&lt;--1944","Latitude":"39.28703","Longitude":"-86.76255"},"coordinates":[3686,3648]},{"type":"Point","properties":{"Name":"Glenn R. Meyers","Address":"","City":"Spencer","State":"IN","Years_of_Operation":"&lt;--1948--&gt;","Latitude":"39.28703","Longitude":"-86.76255"},"coordinates":[3686,3648]},{"type":"Point","properties":{"Name":"Pogue Truck Sales","Address":"","City":"Spencer","State":"IN","Years_of_Operation":"&lt;--1958--&gt;","Latitude":"39.28703","Longitude":"-86.76255"},"coordinates":[3686,3648]},{"type":"Point","properties":{"Name":"Ingalls Buick-Pontiac Company","Address":"182 South Main Street","City":"Spencer","State":"IN","Years_of_Operation":"&lt;--1962--&gt;","Latitude":"39.28367","Longitude":"-86.76252"},"coordinates":[3686,3640]},{"type":"Point","properties":{"Name":"Birr Buick-Pontiac","Address":"","City":"Spencer","State":"IN","Years_of_Operation":"&lt;--1964-1965--&gt;","Latitude":"39.28703","Longitude":"-86.76255"},"coordinates":[3686,3648]},{"type":"Point","properties":{"Name":"Bob's Diesel Garage","Address":"","City":"Spencer","State":"IN","Years_of_Operation":"&lt;--1967--&gt;","Latitude":"39.28703","Longitude":"-86.76255"},"coordinates":[3686,3648]},{"type":"Point","properties":{"Name":"Julian & Julian","Address":"","City":"Spurgeon","State":"IN","Years_of_Operation":"&lt;--1946","Latitude":"38.25231","Longitude":"-87.25744"},"coordinates":[2085,959]},{"type":"Point","properties":{"Name":"H. M. Uebelhor","Address":"","City":"St. Henry","State":"IN","Years_of_Operation":"&lt;--1919--&gt;","Latitude":"38.21773","Longitude":"-86.92853"},"coordinates":[3149,869]},{"type":"Point","properties":{"Name":"J. F. Gerlach Sons","Address":"","City":"St. John","State":"IN","Years_of_Operation":"&lt;--1944","Latitude":"41.44996","Longitude":"-87.47018"},"coordinates":[1397,9269]},{"type":"Point","properties":{"Name":"Joseph Schuman / Jos. G. Schuman","Address":"","City":"St. Leon","State":"IN","Years_of_Operation":"&lt;--1948-1969--&gt;","Latitude":"39.29193","Longitude":"-84.95926"},"coordinates":[9520,3661]},{"type":"Point","properties":{"Name":"Schuman's Garage","Address":"State Road 1","City":"St. Leon","State":"IN","Years_of_Operation":"&lt;--1973-1979--&gt;","Latitude":"39.42059","Longitude":"-85.01218"},"coordinates":[9349,3995]},{"type":"Point","properties":{"Name":"W. W. Townsend","Address":"","City":"St. Paul","State":"IN","Years_of_Operation":"&lt;--1913-1914--&gt;","Latitude":"39.42665","Longitude":"-85.62917"},"coordinates":[7353,4011]},{"type":"Point","properties":{"Name":"Coleman Nash","Address":"720 North Section Street","City":"Sullivan","State":"IN","Years_of_Operation":"&lt;--1946-1947","Latitude":"39.11776","Longitude":"-87.40919"},"coordinates":[1594,3208]},{"type":"Point","properties":{"Name":"Rader Sales (Inc.)","Address":"Junction 41 & 54","City":"Sullivan","State":"IN","Years_of_Operation":"&lt;--1948--&gt;","Latitude":"39.16565","Longitude":"-87.17549"},"coordinates":[2350,3333]},{"type":"Point","properties":{"Name":"South Side Farm Equipment (Company)","Address":"","City":"Sullivan","State":"IN","Years_of_Operation":"&lt;--1958-1964--&gt;","Latitude":"39.09547","Longitude":"-87.40962"},"coordinates":[1593,3150]},{"type":"Point","properties":{"Name":"Moody's Truck Sales & Service","Address":"","City":"Sullivan","State":"IN","Years_of_Operation":"&lt;--1973-1979--&gt;","Latitude":"39.09547","Longitude":"-87.40962"},"coordinates":[1593,3150]},{"type":"Point","properties":{"Name":"Springer Equipment Company, Inc.","Address":"","City":"Sullivan","State":"IN","Years_of_Operation":"&lt;--1979--&gt;","Latitude":"39.09547","Longitude":"-87.40962"},"coordinates":[1593,3150]},{"type":"Point","properties":{"Name":"Red Power, Inc.","Address":"","City":"Sullivan","State":"IN","Years_of_Operation":"&lt;--1984--&gt;","Latitude":"39.09547","Longitude":"-87.40962"},"coordinates":[1593,3150]},{"type":"Point","properties":{"Name":"McMahan & Son","Address":"","City":"Summitville","State":"IN","Years_of_Operation":"&lt;--1948-1967--&gt;","Latitude":"40.33921","Longitude":"-85.64445"},"coordinates":[7304,6383]},{"type":"Point","properties":{"Name":"Al Brunsman","Address":"","City":"Sunman","State":"IN","Years_of_Operation":"&lt;--1948--&gt;","Latitude":"39.23695","Longitude":"-85.09158"},"coordinates":[9092,3518]},{"type":"Point","properties":{"Name":"Brunsman & Hartman","Address":"","City":"Sunman","State":"IN","Years_of_Operation":"&lt;--1958-1962--&gt;","Latitude":"39.23695","Longitude":"-85.09158"},"coordinates":[9092,3518]},{"type":"Point","properties":{"Name":"Armstrong Farm Equipment","Address":"203 North Washington Street","City":"Swayzee","State":"IN","Years_of_Operation":"&lt;--1948-1984--&gt;","Latitude":"40.19703","Longitude":"-86.66593"},"coordinates":[3999,6013]},{"type":"Point","properties":{"Name":"Byler Motors","Address":"","City":"Syracuse","State":"IN","Years_of_Operation":"&lt;--1964--&gt;","Latitude":"41.42329","Longitude":"-85.74872"},"coordinates":[6966,9200]},{"type":"Point","properties":{"Name":"C. A. Lemert","Address":"","City":"Teegarden","State":"IN","Years_of_Operation":"&lt;--1913--&gt;","Latitude":"41.46561","Longitude":"-86.37738"},"coordinates":[4932,9310]},{"type":"Point","properties":{"Name":"Perry County Farmers Company","Address":"","City":"Tell City","State":"IN","Years_of_Operation":"&lt;--1923--&gt;","Latitude":"37.94927","Longitude":"-86.76455"},"coordinates":[3680,172]},{"type":"Point","properties":{"Name":"Dauby Motor Company","Address":"","City":"Tell City","State":"IN","Years_of_Operation":"&lt;--1948-1955--&gt;","Latitude":"37.94927","Longitude":"-86.76455"},"coordinates":[3680,172]},{"type":"Point","properties":{"Name":"Earl's Auto Sales & Service","Address":"","City":"Tell City","State":"IN","Years_of_Operation":"&lt;--1958--&gt;","Latitude":"37.94927","Longitude":"-86.76455"},"coordinates":[3680,172]},{"type":"Point","properties":{"Name":"Tell City Auto & Machine Works (Inc.)","Address":"7th Street & Humboldt Street","City":"Tell City","State":"IN","Years_of_Operation":"&lt;--1962-1977--&gt;","Latitude":"37.948","Longitude":"-86.77083"},"coordinates":[3660,168]},{"type":"Point","properties":{"Name":"Vigo Auto Company","Address":"","City":"Terre Haute","State":"IN","Years_of_Operation":"&lt;--1920--&gt;","Latitude":"39.46648","Longitude":"-87.41258"},"coordinates":[1583,4115]},{"type":"Point","properties":{"Name":"McCormick-Deering Store","Address":"","City":"Terre Haute","State":"IN","Years_of_Operation":"&lt;--1944","Latitude":"39.46648","Longitude":"-87.41258"},"coordinates":[1583,4115]},{"type":"Point","properties":{"Name":"C. R. Mayfield","Address":"200 North 9th Street","City":"Terre Haute","State":"IN","Years_of_Operation":"&lt;--1948-1968--&gt;","Latitude":"39.46647","Longitude":"-87.45371"},"coordinates":[1450,4115]},{"type":"Point","properties":{"Name":"Adams Trucks, Inc.","Address":"","City":"Terre Haute","State":"IN","Years_of_Operation":"&lt;--1969--&gt;","Latitude":"39.46648","Longitude":"-87.41258"},"coordinates":[1583,4115]},{"type":"Point","properties":{"Name":"Biefield Tractor Sales, Inc.","Address":"2001 South 13th Street","City":"Terre Haute","State":"IN","Years_of_Operation":"&lt;--1971-1979--&gt;","Latitude":"39.44514","Longitude":"-87.39785"},"coordinates":[1631,4059]},{"type":"Point","properties":{"Name":"Minnis International, Inc.","Address":"2001 South 13th Street","City":"Terre Haute","State":"IN","Years_of_Operation":"&lt;--1984--&gt;","Latitude":"39.44514","Longitude":"-87.39785"},"coordinates":[1631,4059]},{"type":"Point","properties":{"Name":"International Harvester Company","Address":"1 West Margaret Avenue","City":"Terre Haute","State":"IN","Years_of_Operation":"&lt;--1973-1974--&gt;","Latitude":"39.43376","Longitude":"-87.41619"},"coordinates":[1572,4030]},{"type":"Point","properties":{"Name":"Mats International Trucks","Address":"1 West Margaret Avenue","City":"Terre Haute","State":"IN","Years_of_Operation":"&lt;--1976-1979--&gt;","Latitude":"39.43376","Longitude":"-87.41619"},"coordinates":[1572,4030]},{"type":"Point","properties":{"Name":"Speedway International Trucks","Address":"1 West Margaret Avenue","City":"Terre Haute","State":"IN","Years_of_Operation":"&lt;--1990--&gt;","Latitude":"39.43376","Longitude":"-87.41619"},"coordinates":[1572,4030]},{"type":"Point","properties":{"Name":"International Harvester Company","Address":"225 North 9th Street","City":"Terre Haute","State":"IN","Years_of_Operation":"&lt;--1918-1946","Latitude":"39.46737","Longitude":"-87.45306"},"coordinates":[1452,4117]},{"type":"Point","properties":{"Name":"International Harvester Company","Address":"230 North 9th Street","City":"Terre Haute","State":"IN","Years_of_Operation":"&lt;--1946-1967--&gt;","Latitude":"39.48296","Longitude":"-87.40414"},"coordinates":[1611,4157]},{"type":"Point","properties":{"Name":"Mater & Spencer","Address":"","City":"Thorntown","State":"IN","Years_of_Operation":"&lt;--1941-1947","Latitude":"40.12941","Longitude":"-86.60946"},"coordinates":[4182,5837]},{"type":"Point","properties":{"Name":"Vehling Implement Company","Address":"","City":"Thorntown","State":"IN","Years_of_Operation":"&lt;--1948--&gt;","Latitude":"40.12941","Longitude":"-86.60946"},"coordinates":[4182,5837]},{"type":"Point","properties":{"Name":"Wilkins Garage","Address":"","City":"Thorntown","State":"IN","Years_of_Operation":"&lt;--1962--&gt;","Latitude":"40.12941","Longitude":"-86.60946"},"coordinates":[4182,5837]},{"type":"Point","properties":{"Name":"Schulenborg & Beck Company (Inc.)","Address":"I. O. O. F. Building","City":"Tipton","State":"IN","Years_of_Operation":"&lt;--1911-1912--&gt;","Latitude":"38.95851","Longitude":"-85.88129"},"coordinates":[6537,2795]},{"type":"Point","properties":{"Name":"F. Ray Hull & Son","Address":"","City":"Tipton","State":"IN","Years_of_Operation":"&lt;--1945","Latitude":"40.28224","Longitude":"-86.04122"},"coordinates":[6020,6235]},{"type":"Point","properties":{"Name":"Newsom Supply Company","Address":"","City":"Tipton","State":"IN","Years_of_Operation":"&lt;--1948--&gt;","Latitude":"40.28224","Longitude":"-86.04122"},"coordinates":[6020,6235]},{"type":"Point","properties":{"Name":"Hoosier Sales & Service","Address":"","City":"Tipton","State":"IN","Years_of_Operation":"&lt;--1958--&gt;","Latitude":"40.28224","Longitude":"-86.04122"},"coordinates":[6020,6235]},{"type":"Point","properties":{"Name":"Pring Implement Sales","Address":"131 North Main Street","City":"Tipton","State":"IN","Years_of_Operation":"&lt;--1962-1969--&gt;","Latitude":"40.65927","Longitude":"-86.24191"},"coordinates":[5371,7214]},{"type":"Point","properties":{"Name":"Hoover Sales & Service","Address":"","City":"Tipton","State":"IN","Years_of_Operation":"1974-1979--&gt;","Latitude":"40.28224","Longitude":"-86.04122"},"coordinates":[6020,6235]},{"type":"Point","properties":{"Name":"Armstrong Machinery Company, Inc.","Address":"Highway 28 West","City":"Tipton","State":"IN","Years_of_Operation":"&lt;--1983-1984--&gt;","Latitude":"40.30122","Longitude":"-86.12706"},"coordinates":[5742,6284]},{"type":"Point","properties":{"Name":"Yoder Motor Sales","Address":"","City":"Topeka","State":"IN","Years_of_Operation":"&lt;--1958--&gt;","Latitude":"41.53936","Longitude":"-85.54056"},"coordinates":[7640,9502]},{"type":"Point","properties":{"Name":"Moyer Trucks","Address":"","City":"Union City","State":"IN","Years_of_Operation":"&lt;--1958--&gt;","Latitude":"40.20212","Longitude":"-84.81433"},"coordinates":[9989,6026]},{"type":"Point","properties":{"Name":"Runkle, Secor & Company","Address":"","City":"Valparaiso","State":"IN","Years_of_Operation":"&lt;--1910--&gt;","Latitude":"41.47814","Longitude":"-87.05537"},"coordinates":[2739,9342]},{"type":"Point","properties":{"Name":"Valparaiso Implement Company","Address":"","City":"Valparaiso","State":"IN","Years_of_Operation":"&lt;--1911-1912--&gt;","Latitude":"41.47814","Longitude":"-87.05537"},"coordinates":[2739,9342]},{"type":"Point","properties":{"Name":"Maxwell Implement Company","Address":"","City":"Valparaiso","State":"IN","Years_of_Operation":"&lt;--1918-1921--&gt;","Latitude":"41.47814","Longitude":"-87.05537"},"coordinates":[2739,9342]},{"type":"Point","properties":{"Name":"Fred Wittenberg & Son","Address":"","City":"Valparaiso","State":"IN","Years_of_Operation":"&lt;--1947","Latitude":"41.47814","Longitude":"-87.05537"},"coordinates":[2739,9342]},{"type":"Point","properties":{"Name":"Harvey Shurr","Address":"399 South 200 West; Highways 2 & 30","City":"Valparaiso","State":"IN","Years_of_Operation":"1947-1966","Latitude":"41.3749","Longitude":"-87.09682"},"coordinates":[2605,9074]},{"type":"Point","properties":{"Name":"Landgrebe & Son (Inc.)","Address":"Highway 130 West","City":"Valparaiso","State":"IN","Years_of_Operation":"&lt;--1967-1984--&gt;","Latitude":"41.49782","Longitude":"-87.13855"},"coordinates":[2470,9394]},{"type":"Point","properties":{"Name":"L & S International, Inc.","Address":"1651 West Lincolnway","City":"Valparaiso","State":"IN","Years_of_Operation":"&lt;--1989-1990--&gt;","Latitude":"41.47481","Longitude":"-87.08177"},"coordinates":[2654,9334]},{"type":"Point","properties":{"Name":"Myers Motor Sales","Address":"","City":"Veedersburg","State":"IN","Years_of_Operation":"&lt;--1958-1964--&gt;","Latitude":"40.113","Longitude":"-87.26348"},"coordinates":[2066,5795]},{"type":"Point","properties":{"Name":"Frank Miller / Frank H. Miller","Address":"","City":"Versailles","State":"IN","Years_of_Operation":"&lt;--1948-1967--&gt;","Latitude":"39.06975","Longitude":"-85.25388"},"coordinates":[8567,3084]},{"type":"Point","properties":{"Name":"Hunter Sales & Service (Company)","Address":"","City":"Versailles","State":"IN","Years_of_Operation":"&lt;--1958-1969--&gt;","Latitude":"39.06975","Longitude":"-85.25388"},"coordinates":[8567,3084]},{"type":"Point","properties":{"Name":"Swinney's Farm Equipment, Inc.","Address":"Highway 421 South","City":"Versailles","State":"IN","Years_of_Operation":"&lt;--1976-1979--&gt;","Latitude":"39.07032","Longitude":"-85.25974"},"coordinates":[8548,3085]},{"type":"Point","properties":{"Name":"C. L. Culbertson","Address":"","City":"Vevay","State":"IN","Years_of_Operation":"&lt;--1947","Latitude":"38.74768","Longitude":"-85.06711"},"coordinates":[9172,2247]},{"type":"Point","properties":{"Name":"Vevay Farm Supply","Address":"","City":"Vevay","State":"IN","Years_of_Operation":"&lt;--1948--&gt;","Latitude":"38.74768","Longitude":"-85.06711"},"coordinates":[9172,2247]},{"type":"Point","properties":{"Name":"Dallas Motor Sales","Address":"","City":"Vevay","State":"IN","Years_of_Operation":"&lt;--1958--&gt;","Latitude":"38.74768","Longitude":"-85.06711"},"coordinates":[9172,2247]},{"type":"Point","properties":{"Name":"Vevay Sales & Service (Inc.)","Address":"","City":"Vevay","State":"IN","Years_of_Operation":"&lt;--1962-1967--&gt;","Latitude":"38.74768","Longitude":"-85.06711"},"coordinates":[9172,2247]},{"type":"Point","properties":{"Name":"Saiter-Morgan Company, Inc.","Address":"","City":"Vincennes","State":"IN","Years_of_Operation":"&lt;--1948-1958--&gt;","Latitude":"38.68202","Longitude":"-87.5125"},"coordinates":[1260,2076]},{"type":"Point","properties":{"Name":"Becker Motor Company","Address":"","City":"Vincennes","State":"IN","Years_of_Operation":"&lt;--1962-1964--&gt;","Latitude":"38.68202","Longitude":"-87.5125"},"coordinates":[1260,2076]},{"type":"Point","properties":{"Name":"McCormick, Inc.","Address":"2409 Highway 41 South","City":"Vincennes","State":"IN","Years_of_Operation":"&lt;--1967-1990--&gt;","Latitude":"38.69886","Longitude":"-87.48609"},"coordinates":[1345,2120]},{"type":"Point","properties":{"Name":"AdamsMeyer, Inc.","Address":"701 Wheatland Road","City":"Vincennes","State":"IN","Years_of_Operation":"","Latitude":"38.69137","Longitude":"-87.49618"},"coordinates":[1313,2100]},{"type":"Point","properties":{"Name":"Henderson Farm Equipment / Henderson's","Address":"473 South Miami Street","City":"Wabash","State":"IN","Years_of_Operation":"1943-1962","Latitude":"40.7939","Longitude":"-85.8217"},"coordinates":[6730,7564]},{"type":"Point","properties":{"Name":"Hoosier Point Truck Sales","Address":"","City":"Wabash","State":"IN","Years_of_Operation":"&lt;--1964--&gt;","Latitude":"40.79679","Longitude":"-85.82233"},"coordinates":[6728,7572]},{"type":"Point","properties":{"Name":"George Mitten","Address":"","City":"Wadena","State":"IN","Years_of_Operation":"&lt;--1913--&gt;","Latitude":"40.69301","Longitude":"-87.26778"},"coordinates":[2052,7302]},{"type":"Point","properties":{"Name":"Leonard Company","Address":"","City":"Wakarusa","State":"IN","Years_of_Operation":"","Latitude":"41.53608","Longitude":"-86.02095"},"coordinates":[6086,9493]},{"type":"Point","properties":{"Name":"Yoder Bros., Inc.","Address":"","City":"Wakarusa","State":"IN","Years_of_Operation":"","Latitude":"41.53608","Longitude":"-86.02095"},"coordinates":[6086,9493]},{"type":"Point","properties":{"Name":"J. N. Lee & Son","Address":"","City":"Waldron","State":"IN","Years_of_Operation":"&lt;--1910--&gt;","Latitude":"39.45492","Longitude":"-85.66697"},"coordinates":[7231,4085]},{"type":"Point","properties":{"Name":"Four County Farm Equipment, Inc.","Address":"","City":"Walkerton","State":"IN","Years_of_Operation":"&lt;--1948--&gt;","Latitude":"41.46686","Longitude":"-86.48324"},"coordinates":[4590,9313]},{"type":"Point","properties":{"Name":"Walkerton Truck Sales & Service","Address":"","City":"Walkerton","State":"IN","Years_of_Operation":"&lt;--1967-1969--&gt;","Latitude":"41.46686","Longitude":"-86.48324"},"coordinates":[4590,9313]},{"type":"Point","properties":{"Name":"Walkerton Motor Sales","Address":"","City":"Walkerton","State":"IN","Years_of_Operation":"","Latitude":"41.46686","Longitude":"-86.48324"},"coordinates":[4590,9313]},{"type":"Point","properties":{"Name":"Walton Elevator Company, Inc.","Address":"","City":"Walton","State":"IN","Years_of_Operation":"&lt;--1948-1969--&gt;","Latitude":"40.66379","Longitude":"-86.24501"},"coordinates":[5361,7226]},{"type":"Point","properties":{"Name":"William Osborn & Son","Address":"","City":"Wanatah","State":"IN","Years_of_Operation":"&lt;--1923--&gt;","Latitude":"41.43076","Longitude":"-86.89877"},"coordinates":[3246,9219]},{"type":"Point","properties":{"Name":"Mitchell & Schoppel, Inc.","Address":"1st Street & Indiana Street; 118 East 1st Street","City":"Wanatah","State":"IN","Years_of_Operation":"&lt;--1948-1979--&gt;","Latitude":"41.42891","Longitude":"-86.89559"},"coordinates":[3256,9215]},{"type":"Point","properties":{"Name":"Kriegbaum Brothers","Address":"","City":"Warren","State":"IN","Years_of_Operation":"","Latitude":"40.6836","Longitude":"-85.42642"},"coordinates":[8009,7278]},{"type":"Point","properties":{"Name":"Sharp Hardware Company","Address":"","City":"Warsaw","State":"IN","Years_of_Operation":"&lt;--1948--&gt;","Latitude":"41.23515","Longitude":"-85.85664"},"coordinates":[6617,8711]},{"type":"Point","properties":{"Name":"W & W Truck Sales, Inc.","Address":"Highway 30 & Road 200 West","City":"Warsaw","State":"IN","Years_of_Operation":"&lt;--1958-1984--&gt;","Latitude":"41.27005","Longitude":"-85.88259"},"coordinates":[6533,8802]},{"type":"Point","properties":{"Name":"Tyner & Wangler","Address":"","City":"Warsaw","State":"IN","Years_of_Operation":"&lt;--1958--&gt;","Latitude":"41.23515","Longitude":"-85.85664"},"coordinates":[6617,8711]},{"type":"Point","properties":{"Name":"Gragg Equipment Company","Address":"Highway 15 South","City":"Warsaw","State":"IN","Years_of_Operation":"&lt;--1973-1984--&gt;","Latitude":"38.78258","Longitude":"-84.81135"},"coordinates":[9999,2337]},{"type":"Point","properties":{"Name":"Lincolnway International Trucks","Address":"2466 North County Road 200","City":"Warsaw","State":"IN","Years_of_Operation":"&lt;--1990--&gt;","Latitude":"41.26914","Longitude":"-85.88088"},"coordinates":[6539,8799]},{"type":"Point","properties":{"Name":"McCormick-Deering Store","Address":"","City":"Washington","State":"IN","Years_of_Operation":"&lt;--1937-1943","Latitude":"40.863889","Longitude":"-86.499722"},"coordinates":[4537,7746]},{"type":"Point","properties":{"Name":"Johnson Bros.","Address":"","City":"Waterloo","State":"IN","Years_of_Operation":"&lt;--1927--&gt;","Latitude":"41.43321","Longitude":"-85.0247"},"coordinates":[9309,9226]},{"type":"Point","properties":{"Name":"Dunn Bros.","Address":"","City":"Waterloo","State":"IN","Years_of_Operation":"&lt;--1948--&gt;","Latitude":"41.43321","Longitude":"-85.0247"},"coordinates":[9309,9226]},{"type":"Point","properties":{"Name":"Burge & Ringle","Address":"","City":"West Lebanon","State":"IN","Years_of_Operation":"&lt;--1916--&gt;","Latitude":"40.27179","Longitude":"-87.38665"},"coordinates":[1667,6207]},{"type":"Point","properties":{"Name":"Wayne Newburn Auto Sales","Address":"555 National Avenue","City":"West Terre Haute","State":"IN","Years_of_Operation":"&lt;--1958--&gt;","Latitude":"39.46485","Longitude":"-87.44936"},"coordinates":[1464,4110]},{"type":"Point","properties":{"Name":"Westport Hardware Company, Inc.","Address":"","City":"Westport","State":"IN","Years_of_Operation":"&lt;--1948--&gt;","Latitude":"39.1759","Longitude":"-85.5745"},"coordinates":[7530,3359]},{"type":"Point","properties":{"Name":"Westport Implement Company","Address":"","City":"Westport","State":"IN","Years_of_Operation":"","Latitude":"39.1759","Longitude":"-85.5745"},"coordinates":[7530,3359]},{"type":"Point","properties":{"Name":"Geo. O. Stembel (Estate)","Address":"","City":"Wheatfield","State":"IN","Years_of_Operation":"&lt;--1948--&gt;","Latitude":"41.18717","Longitude":"-87.0526"},"coordinates":[2748,8586]},{"type":"Point","properties":{"Name":"Route 31 Service Plaza (Inc.)","Address":"","City":"Whiteland","State":"IN","Years_of_Operation":"&lt;--1964-1969--&gt;","Latitude":"39.54994","Longitude":"-86.08548"},"coordinates":[5877,4332]},{"type":"Point","properties":{"Name":"Robertson Implement Company","Address":"","City":"Williamsport","State":"IN","Years_of_Operation":"&lt;--1948","Latitude":"40.28805","Longitude":"-87.29438"},"coordinates":[1966,6250]},{"type":"Point","properties":{"Name":"Bower Implement Company","Address":"","City":"Williamsport","State":"IN","Years_of_Operation":"&lt;--1948-1969--&gt;","Latitude":"40.28805","Longitude":"-87.29438"},"coordinates":[1966,6250]},{"type":"Point","properties":{"Name":"Dalton Farm Equipment, Inc.","Address":"17 Front Street","City":"Williamsport","State":"IN","Years_of_Operation":"&lt;--1975--&gt;","Latitude":"40.28816","Longitude":"-87.29188"},"coordinates":[1974,6250]},{"type":"Point","properties":{"Name":"Warren Farm Equipment, Inc.","Address":"State Road 28 West","City":"Williamsport","State":"IN","Years_of_Operation":"&lt;--1979--&gt;","Latitude":"40.28802","Longitude":"-87.29471"},"coordinates":[1965,6250]},{"type":"Point","properties":{"Name":"Mann Farm Equipment, Inc.","Address":"State Road 28","City":"Williamsport","State":"IN","Years_of_Operation":"","Latitude":"40.29137","Longitude":"-87.2914"},"coordinates":[1975,6258]},{"type":"Point","properties":{"Name":"Orland Goble","Address":"","City":"Winamac","State":"IN","Years_of_Operation":"&lt;--1948-1958--&gt;","Latitude":"41.05135","Longitude":"-86.60288"},"coordinates":[4203,8233]},{"type":"Point","properties":{"Name":"North Central Agri-Power, Inc.","Address":"2686 Highway 35","City":"Winamac","State":"IN","Years_of_Operation":"&lt;--2009-2012--&gt;","Latitude":"41.01712","Longitude":"-86.5781"},"coordinates":[4283,8144]},{"type":"Point","properties":{"Name":"Bruce Maxwell","Address":"","City":"Winchester","State":"IN","Years_of_Operation":"1939-1948--&gt;","Latitude":"40.17253","Longitude":"-84.98132"},"coordinates":[9449,5949]},{"type":"Point","properties":{"Name":"Heckley & Sheffer (Inc.)","Address":"North Main Street & the White River","City":"Winchester","State":"IN","Years_of_Operation":"&lt;--1958-1984--&gt;","Latitude":"40.17931","Longitude":"-84.98136"},"coordinates":[9449,5967]},{"type":"Point","properties":{"Name":"Charles T. Webb","Address":"","City":"Wingate","State":"IN","Years_of_Operation":"&lt;--1910--&gt;","Latitude":"40.17187","Longitude":"-87.07143"},"coordinates":[2687,5948]},{"type":"Point","properties":{"Name":"Robinson Implement Sales","Address":"","City":"Wingate","State":"IN","Years_of_Operation":"&lt;--1948--&gt;","Latitude":"40.17187","Longitude":"-87.07143"},"coordinates":[2687,5948]},{"type":"Point","properties":{"Name":"Robinson Implement Sales","Address":"39 Vine Street","City":"Wingate","State":"IN","Years_of_Operation":"&lt;--1979--&gt;","Latitude":"40.17256","Longitude":"-87.07292"},"coordinates":[2682,5950]},{"type":"Point","properties":{"Name":"B. C. Fowler","Address":"","City":"Wolcott","State":"IN","Years_of_Operation":"&lt;--1919--&gt;","Latitude":"40.75849","Longitude":"-87.04154"},"coordinates":[2784,7472]},{"type":"Point","properties":{"Name":"B. C. Fowler & Son","Address":"","City":"Wolcott","State":"IN","Years_of_Operation":"&lt;--1948-1951--&gt;","Latitude":"40.75849","Longitude":"-87.04154"},"coordinates":[2784,7472]},{"type":"Point","properties":{"Name":"Romack Implement Sales (Inc.)","Address":"","City":"Wolcott","State":"IN","Years_of_Operation":"&lt;--1962-1967--&gt;","Latitude":"40.75849","Longitude":"-87.04154"},"coordinates":[2784,7472]},{"type":"Point","properties":{"Name":"Wolf Lake Hudson Sales","Address":"","City":"Wolf Lake","State":"IN","Years_of_Operation":"&lt;--1958--&gt;","Latitude":"38.35097","Longitude":"-85.77086"},"coordinates":[6895,1216]},{"type":"Point","properties":{"Name":"Wolf Lake Rambler Sales","Address":"","City":"Wolf Lake","State":"IN","Years_of_Operation":"&lt;--1962-1964--&gt;","Latitude":"38.35097","Longitude":"-85.77086"},"coordinates":[6895,1216]},{"type":"Point","properties":{"Name":"Wolf Lake Motor Sales","Address":"","City":"Wolf Lake","State":"IN","Years_of_Operation":"&lt;--1967--&gt;","Latitude":"38.35097","Longitude":"-85.77086"},"coordinates":[6895,1216]},{"type":"Point","properties":{"Name":"Peoples Hardware Company","Address":"","City":"Woodburn","State":"IN","Years_of_Operation":"&lt;--1918--&gt;","Latitude":"41.12502","Longitude":"-84.85471"},"coordinates":[9859,8425]},{"type":"Point","properties":{"Name":"Gregg & Roemke Implement Company","Address":"","City":"Woodburn","State":"IN","Years_of_Operation":"&lt;--1948-1951--&gt;","Latitude":"41.12502","Longitude":"-84.85471"},"coordinates":[9859,8425]},{"type":"Point","properties":{"Name":"Rosener's Garage","Address":"","City":"Woodburn","State":"IN","Years_of_Operation":"&lt;--1958--&gt;","Latitude":"41.12502","Longitude":"-84.85471"},"coordinates":[9859,8425]},{"type":"Point","properties":{"Name":"101 Service Center (Servicenter)","Address":"","City":"Woodburn","State":"IN","Years_of_Operation":"&lt;--1962-1964--&gt;","Latitude":"41.12502","Longitude":"-84.85471"},"coordinates":[9859,8425]},{"type":"Point","properties":{"Name":"Gregg Implement Company","Address":"","City":"Woodburn","State":"IN","Years_of_Operation":"","Latitude":"41.12502","Longitude":"-84.85471"},"coordinates":[9859,8425]},{"type":"Point","properties":{"Name":"Charles Moore","Address":"","City":"Worthington","State":"IN","Years_of_Operation":"&lt;--1946","Latitude":"39.11534","Longitude":"-86.97912"},"coordinates":[2986,3202]},{"type":"Point","properties":{"Name":"Worthington Truck & Implement Company","Address":"","City":"Worthington","State":"IN","Years_of_Operation":"&lt;--1948-1951--&gt;","Latitude":"39.11534","Longitude":"-86.97912"},"coordinates":[2986,3202]},{"type":"Point","properties":{"Name":"A. D. Stahl","Address":"","City":"Worthington","State":"IN","Years_of_Operation":"&lt;--1962-1967--&gt;","Latitude":"39.11534","Longitude":"-86.97912"},"coordinates":[2986,3202]}]}},"arcs":[],"transform":{"scale":[0.0003090929092909292,0.0003847974797479752],"translate":[-87.90197,37.88319]}}