{"type":"Topology","objects":{"IHC_Plants":{"type":"GeometryCollection","geometries":[{"type":"Point","coordinates":[145.21486,-37.98746],"properties":{"City":"Dandenong","State":"Vicoria","Country":"Australia","Plant_Type":"Factory","Product":"Medium Heavy Trucks","Latitude":"-37.98746","Longitude":"145.21486"}},{"type":"Point","coordinates":[144.35934,-38.148],"properties":{"City":"Geelong","State":"Victoria","Country":"Australia","Plant_Type":"Factory","Product":"Farm Tractors,Combines,Implements,Engines,Foundry","Latitude":"-38.148","Longitude":"144.35934"}},{"type":"Point","coordinates":[144.96043,-37.83238],"properties":{"City":"South Melbourne","State":"Victoria","Country":"Australia","Plant_Type":"Headquarters - International Harvester,Australia","Product":"","Latitude":"-37.83238","Longitude":"144.96043"}},{"type":"Point","coordinates":[144.96043,-37.83238],"properties":{"City":"South Melbourne","State":"Victoria","Country":"Australia","Plant_Type":"Parts Distribution Center","Product":"","Latitude":"-37.83238","Longitude":"144.96043"}},{"type":"Point","coordinates":[144.96043,-37.83238],"properties":{"City":"South Melbourne","State":"Victoria","Country":"Australia","Plant_Type":"Headquarters - International Harvester Credit Corporation of Australia","Product":"","Latitude":"-37.83238","Longitude":"144.96043"}},{"type":"Point","coordinates":[144.96043,-37.83238],"properties":{"City":"South Melbourne","State":"Victoria","Country":"Australia","Plant_Type":"Seddon Atkinson Sales,Ltd","Product":"","Latitude":"-37.83238","Longitude":"144.96043"}},{"type":"Point","coordinates":[144.96043,-37.83238],"properties":{"City":"South Melbourne","State":"Victoria","Country":"Australia","Plant_Type":"International Harvester Overseas Services Co.","Product":"","Latitude":"-37.83238","Longitude":"144.96043"}},{"type":"Point","coordinates":[144.96043,-37.83238],"properties":{"City":"South Melbourne","State":"Victoria","Country":"Australia","Plant_Type":"Payline Regional Sales Office","Product":"","Latitude":"-37.83238","Longitude":"144.96043"}},{"type":"Point","coordinates":[144.96043,-37.83238],"properties":{"City":"South Melbourne","State":"Victoria","Country":"Australia","Plant_Type":"Headquarters - Truck Region","Product":"","Latitude":"-37.83238","Longitude":"144.96043"}},{"type":"Point","coordinates":[16.37278,48.20921],"properties":{"City":"Vienna","State":"","Country":"Austria","Plant_Type":"Regioal Sales Office","Product":"","Latitude":"48.20921","Longitude":"16.37278"}},{"type":"Point","coordinates":[4.35571,50.84554],"properties":{"City":"Brussels","State":"","Country":"Belgium","Plant_Type":"Solar Regional Office","Product":"","Latitude":"50.84554","Longitude":"4.35571"}},{"type":"Point","coordinates":[4.35571,50.84554],"properties":{"City":"Brussels","State":"","Country":"Belgium","Plant_Type":"Truck Regional Office","Product":"","Latitude":"50.84554","Longitude":"4.35571"}},{"type":"Point","coordinates":[4.90387,51.13845],"properties":{"City":"Oeval","State":"","Country":"Belgium","Plant_Type":"DAF Truck Factory","Product":"","Latitude":"51.13845","Longitude":"4.90387"}},{"type":"Point","coordinates":[4.42485,50.92705],"properties":{"City":"Vilvoorde","State":"","Country":"Belgium","Plant_Type":"International Harvester Co. of Belgium, SA/NV Sales Subsidiary","Product":"","Latitude":"50.92705","Longitude":"4.42485"}},{"type":"Point","coordinates":[-64.73842,32.33901],"properties":{"City":"Hamilton","State":"","Country":"Bermuda","Plant_Type":"International Harvester Acceptance Corporation Ltd., Finance Subsidiary","Product":"","Latitude":"32.33901","Longitude":"-64.73842"}},{"type":"Point","coordinates":[-64.73842,32.33901],"properties":{"City":"Hamilton","State":"","Country":"Bermuda","Plant_Type":"Harbour Assurance Co. of Bermuda Ltd. Subsidiary","Product":"","Latitude":"32.33901","Longitude":"-64.73842"}},{"type":"Point","coordinates":[-64.73842,32.33901],"properties":{"City":"Hamilton","State":"","Country":"Bermuda","Plant_Type":"Headquarters - Energy Services International Ltd. Subsidiary","Product":"","Latitude":"32.33901","Longitude":"-64.73842"}},{"type":"Point","coordinates":[-79.7983,43.32599],"properties":{"City":"Burlington","State":" Ontario","Country":" Canada","Plant_Type":"Parts Distribution Center","Product":"","Latitude":"43.32599","Longitude":"-79.7983"}},{"type":"Point","coordinates":[-73.51658,45.3924],"properties":{"City":"Candiac","State":"Quebec","Country":"Canada","Plant_Type":"Factory","Product":"Wheel Loaders and Loggers","Latitude":"45.3924","Longitude":"-73.51658"}},{"type":"Point","coordinates":[-74.40737,45.6759],"properties":{"City":"Chatham","State":"Quebec","Country":"Canada","Plant_Type":"Factory","Product":"Trucks","Latitude":"45.6759","Longitude":"-74.40737"}},{"type":"Point","coordinates":[-113.49091,53.54445],"properties":{"City":"Edmonton","State":"Alberta","Country":"Canada","Plant_Type":"Solar Product Support Center","Product":"","Latitude":"53.54445","Longitude":"-113.49091"}},{"type":"Point","coordinates":[-113.49091,53.54445],"properties":{"City":"Edmonton","State":"Alberta","Country":"Canada","Plant_Type":"Parts Distribution Center","Product":"","Latitude":"53.54445","Longitude":"-113.49091"}},{"type":"Point","coordinates":[-64.73842,32.33901],"properties":{"City":"Hamilton","State":"","Country":"Bermuda","Plant_Type":"Internatioal Harvester Acceptance Sorporation Ltd., Finance Subsidiaery","Product":"","Latitude":"32.33901","Longitude":"-64.73842"}},{"type":"Point","coordinates":[-64.73842,32.33901],"properties":{"City":"Hamilton","State":"","Country":"Bermuda","Plant_Type":"Headquarters - Energy Services International, Ltd., Subsidiary","Product":"","Latitude":"32.33901","Longitude":"-64.73842"}},{"type":"Point","coordinates":[-79.7983,43.32599],"properties":{"City":"Burlington","State":" Ontario","Country":" Canada","Plant_Type":"Parts Distribution Center","Product":"","Latitude":"43.32599","Longitude":"-79.7983"}},{"type":"Point","coordinates":[-73.51658,45.3924],"properties":{"City":"Candiac","State":"Quebec","Country":"Canada","Plant_Type":"Factory","Product":"Wheel Loaders and Loggers","Latitude":"45.3924","Longitude":"-73.51658"}},{"type":"Point","coordinates":[-74.40737,45.6759],"properties":{"City":"Chatham","State":"Quebec","Country":"Canada","Plant_Type":"Factory","Product":"Trucks","Latitude":"45.6759","Longitude":"-74.40737"}},{"type":"Point","coordinates":[-113.49091,53.54445],"properties":{"City":"Edmonton","State":"Alberta","Country":"Canada","Plant_Type":"Solar Product Support Center","Product":"","Latitude":"53.54445","Longitude":"-113.49091"}},{"type":"Point","coordinates":[-113.49091,53.54445],"properties":{"City":"Edmonton","State":"Alberta","Country":"Canada","Plant_Type":"Parts Distribution Center","Product":"","Latitude":"53.54445","Longitude":"-113.49091"}},{"type":"Point","coordinates":[-79.87442,43.25653],"properties":{"City":"Hamilton","State":"Ontario","Country":"Canada","Plant_Type":"Headquarters - International Harvester Canada","Product":"","Latitude":"43.25653","Longitude":"-79.87442"}},{"type":"Point","coordinates":[-79.87442,43.25653],"properties":{"City":"Hamilton","State":"Ontario","Country":"Canada","Plant_Type":"Headquarters - International Harvester Credit Corporation of Canada, Ltd.","Product":"","Latitude":"43.25653","Longitude":"-79.87442"}},{"type":"Point","coordinates":[-79.87442,43.25653],"properties":{"City":"Hamilton","State":"Ontario","Country":"Canada","Plant_Type":"Headquarters - Harcan Leasing, Ltd.","Product":"","Latitude":"43.25653","Longitude":"-79.87442"}},{"type":"Point","coordinates":[-79.87442,43.25653],"properties":{"City":"Hamilton","State":"Ontario","Country":"Canada","Plant_Type":"Factory","Product":"Farm Implements","Latitude":"43.25653","Longitude":"-79.87442"}},{"type":"Point","coordinates":[-123.06924,49.31995],"properties":{"City":"North Vancouver","State":"British Columbia","Country":"Canada","Plant_Type":"Headquarters - Pacific Truck and Trailer","Product":"","Latitude":"49.31995","Longitude":"-123.06924"}},{"type":"Point","coordinates":[-123.06924,49.31995],"properties":{"City":"North Vancouver","State":"British Columbia","Country":"Canada","Plant_Type":"Factory","Product":"On/Off Highway Trucks","Latitude":"49.31995","Longitude":"-123.06924"}},{"type":"Point","coordinates":[-78.81342,44.79746],"properties":{"City":"Winnipeg","State":"Ontario","Country":"Canada","Plant_Type":"Parts Distribution Center","Product":"","Latitude":"44.79746","Longitude":"-78.81342"}},{"type":"Point","coordinates":[12.56902,55.67576],"properties":{"City":"Copenhagen","State":"","Country":"Denmark","Plant_Type":"Sales Subsidiary","Product":"Aktieselskabel International Harvester Company","Latitude":"55.67576","Longitude":"12.56902"}},{"type":"Point","coordinates":[12.56902,55.67576],"properties":{"City":"Copenhagen","State":"","Country":"Denmark","Plant_Type":"Parts Distribution Center","Product":"","Latitude":"55.67576","Longitude":"12.56902"}},{"type":"Point","coordinates":[-1.75244,53.79385],"properties":{"City":"Bradford","State":"Yorkshire","Country":"England","Plant_Type":"Factory","Product":"Farm Tractors, Industrial Tractors","Latitude":"53.79385","Longitude":"-1.75244"}},{"type":"Point","coordinates":[-1.13376,53.52304],"properties":{"City":"Doncaster","State":"Yorkshire","Country":"England","Plant_Type":"Factory","Product":"Transmissions,Industrial Tractors,Crawler Tractors","Latitude":"53.52304","Longitude":"-1.13376"}},{"type":"Point","coordinates":[-1.13376,53.52304],"properties":{"City":"Doncaster","State":"Yorkshire","Country":"England","Plant_Type":"Factory","Product":"Farm Tractors,Balers","Latitude":"53.52304","Longitude":"-1.13376"}},{"type":"Point","coordinates":[-1.13376,53.52304],"properties":{"City":"Doncaster","State":"Yorkshire","Country":"England","Plant_Type":"Engineering Center","Product":"","Latitude":"53.52304","Longitude":"-1.13376"}},{"type":"Point","coordinates":[-1.13376,53.52304],"properties":{"City":"Doncaster","State":"Yorkshire","Country":"England","Plant_Type":"Parts Distribution Center","Product":"","Latitude":"53.52304","Longitude":"-1.13376"}},{"type":"Point","coordinates":[-0.12624,51.50015],"properties":{"City":"London","State":"","Country":"England","Plant_Type":"Headquarters","Product":"International Harvester Great Britain","Latitude":"51.50015","Longitude":"-0.12624"}},{"type":"Point","coordinates":[-0.12624,51.50015],"properties":{"City":"London","State":"","Country":"England","Plant_Type":"Headquarters","Product":"International Harvester Overseas Services Co.","Latitude":"51.50015","Longitude":"-0.12624"}},{"type":"Point","coordinates":[-0.12624,51.50015],"properties":{"City":"London","State":"","Country":"England","Plant_Type":"Regional Payline Sales Office,\nLondon,,England,Solar Regional Office","Product":"","Latitude":"51.50015","Longitude":"-0.12624"}},{"type":"Point","coordinates":[-0.12624,51.50015],"properties":{"City":"London","State":"","Country":"England","Plant_Type":"Harbor Underwriting Agency (U.K.) Ltd.","Product":"","Latitude":"51.50015","Longitude":"-0.12624"}},{"type":"Point","coordinates":[-0.12624,51.50015],"properties":{"City":"London","State":"","Country":"England","Plant_Type":"Headquarters","Product":"International Harvester Credit Corporation of Great Britain, Ltd.","Latitude":"51.50015","Longitude":"-0.12624"}},{"type":"Point","coordinates":[-2.11766,53.54125],"properties":{"City":"Oldham","State":"Lancashire","Country":"England","Plant_Type":"Headquarters","Product":"Seddon Diesel Vehicles, Ltd.","Latitude":"53.54125","Longitude":"-2.11766"}},{"type":"Point","coordinates":[-2.11766,53.54125],"properties":{"City":"Oldham","State":"Lancashire","Country":"England","Plant_Type":"Factory","Product":"Trucks","Latitude":"53.54125","Longitude":"-2.11766"}},{"type":"Point","coordinates":[-2.70344,53.75773],"properties":{"City":"Preston","State":"Lancashire","Country":"England","Plant_Type":"Factory","Product":"Trucks and Cabs","Latitude":"53.75773","Longitude":"-2.70344"}},{"type":"Point","coordinates":[-2.70344,53.75773],"properties":{"City":"Preston","State":"Lancashire","Country":"England","Plant_Type":"Parts Distribution Center","Product":"","Latitude":"53.75773","Longitude":"-2.70344"}},{"type":"Point","coordinates":[4.33837,46.20782],"properties":{"City":"Chauffailles","State":"","Country":"France","Plant_Type":"Factory","Product":"Excavators","Latitude":"46.20782","Longitude":"4.33837"}},{"type":"Point","coordinates":[3.14832,50.67491],"properties":{"City":"Croix","State":"","Country":"France","Plant_Type":"Factory","Product":"Farm Combines,Implements","Latitude":"50.67491","Longitude":"3.14832"}},{"type":"Point","coordinates":[4.99706,45.73251],"properties":{"City":"Genas","State":"","Country":"France","Plant_Type":"Headquarters","Product":"Yumbo Co.","Latitude":"45.73251","Longitude":"4.99706"}},{"type":"Point","coordinates":[4.99706,45.73251],"properties":{"City":"Genas","State":"","Country":"France","Plant_Type":"Factory","Product":"Excavators","Latitude":"45.73251","Longitude":"4.99706"}},{"type":"Point","coordinates":[4.99706,45.73251],"properties":{"City":"Genas","State":"","Country":"France","Plant_Type":"Parts Distribution Center","Product":"","Latitude":"45.73251","Longitude":"4.99706"}},{"type":"Point","coordinates":[4.99706,45.73251],"properties":{"City":"Genas","State":"","Country":"France","Plant_Type":"Engineering Center","Product":"","Latitude":"45.73251","Longitude":"4.99706"}},{"type":"Point","coordinates":[2.35085,48.85689],"properties":{"City":"Paris","State":"","Country":"France","Plant_Type":"Headquarters","Product":"International Harvester Europe S.A.","Latitude":"48.85689","Longitude":"2.35085"}},{"type":"Point","coordinates":[2.35085,48.85689],"properties":{"City":"Paris","State":"","Country":"France","Plant_Type":"Headquarters","Product":"International Harvester Agricultural Equipment Group - Europe,Africa,Middle East","Latitude":"48.85689","Longitude":"2.35085"}},{"type":"Point","coordinates":[2.35085,48.85689],"properties":{"City":"Paris","State":"","Country":"France","Plant_Type":"Headquarters","Product":"International Harvester France","Latitude":"48.85689","Longitude":"2.35085"}},{"type":"Point","coordinates":[2.35085,48.85689],"properties":{"City":"Paris","State":"","Country":"France","Plant_Type":"Solar Regional Office","Product":"","Latitude":"48.85689","Longitude":"2.35085"}},{"type":"Point","coordinates":[2.41201,48.65397],"properties":{"City":"Ris Orangis","State":"","Country":"France","Plant_Type":"Solar Power Support Center","Product":"","Latitude":"48.65397","Longitude":"2.41201"}},{"type":"Point","coordinates":[4.94958,48.63723],"properties":{"City":"St. Dizier","State":"","Country":"France","Plant_Type":"Factory","Product":"Farm Tractors,Transmissions","Latitude":"48.63723","Longitude":"4.94958"}},{"type":"Point","coordinates":[4.94958,48.63723],"properties":{"City":"St. Dizier","State":"","Country":"France","Plant_Type":"Foundry","Product":"","Latitude":"48.63723","Longitude":"4.94958"}},{"type":"Point","coordinates":[8.6803,49.40192],"properties":{"City":"Heidelberg","State":"","Country":"Germany","Plant_Type":"Factory","Product":"Front End Loaders","Latitude":"49.40192","Longitude":"8.6803"}},{"type":"Point","coordinates":[8.6803,49.40192],"properties":{"City":"Heidelberg","State":"","Country":"Germany","Plant_Type":"Parts Distribution Center","Product":"","Latitude":"49.40192","Longitude":"8.6803"}},{"type":"Point","coordinates":[6.69529,51.19843],"properties":{"City":"Neuss","State":"","Country":"Germany","Plant_Type":"Headquarters","Product":"Internatioal Harvester Germany","Latitude":"51.19843","Longitude":"6.69529"}},{"type":"Point","coordinates":[6.69529,51.19843],"properties":{"City":"Neuss","State":"","Country":"Germany","Plant_Type":"Engineering Center","Product":"","Latitude":"51.19843","Longitude":"6.69529"}},{"type":"Point","coordinates":[6.69529,51.19843],"properties":{"City":"Neuss","State":"","Country":"Germany","Plant_Type":"Factory","Product":"Farm Tractors,Diesel Engines","Latitude":"51.19843","Longitude":"6.69529"}},{"type":"Point","coordinates":[6.69529,51.19843],"properties":{"City":"Neuss","State":"","Country":"Germany","Plant_Type":"Foundry","Product":"","Latitude":"51.19843","Longitude":"6.69529"}},{"type":"Point","coordinates":[23.73615,37.97534],"properties":{"City":"Athens","State":"","Country":"Greece","Plant_Type":"Regional Sales Office","Product":"","Latitude":"37.97534","Longitude":"23.73615"}},{"type":"Point","coordinates":[72.82118,18.96905],"properties":{"City":"Bombay","State":"","Country":"India","Plant_Type":"Headquarters","Product":"Mahindra and Mahindra Ltd.","Latitude":"18.96905","Longitude":"72.82118"}},{"type":"Point","coordinates":[72.82118,18.96905],"properties":{"City":"Bombay","State":"","Country":"India","Plant_Type":"Factory","Product":"Farm Implements","Latitude":"18.96905","Longitude":"72.82118"}},{"type":"Point","coordinates":[79.0882,21.15262],"properties":{"City":"Nagpur","State":"","Country":"India","Plant_Type":"Factory","Product":"Farm Implements","Latitude":"21.15262","Longitude":"79.0882"}},{"type":"Point","coordinates":[-6.26749,53.3441],"properties":{"City":"Dublin","State":"","Country":"Ireland","Plant_Type":"Energy Services International","Product":"","Latitude":"53.3441","Longitude":"-6.26749"}},{"type":"Point","coordinates":[9.18812,45.46362],"properties":{"City":"Milan","State":"","Country":"Italy","Plant_Type":"Sales Subsidiary","Product":"International Harvester Italiana, S.p.A.","Latitude":"45.46362","Longitude":"9.18812"}},{"type":"Point","coordinates":[9.18812,45.46362],"properties":{"City":"Milan","State":"","Country":"Italy","Plant_Type":"Parts Distribution Center","Product":"","Latitude":"45.46362","Longitude":"9.18812"}},{"type":"Point","coordinates":[139.49106,35.91769],"properties":{"City":"Kawagoe","State":"","Country":"Japan","Plant_Type":"KIMCO Factory","Product":"Wheeled Front End Loaders","Latitude":"35.91769","Longitude":"139.49106"}},{"type":"Point","coordinates":[139.49106,35.91769],"properties":{"City":"Kawagoe","State":"","Country":"Japan","Plant_Type":"Solar Regional Office","Product":"","Latitude":"35.91769","Longitude":"139.49106"}},{"type":"Point","coordinates":[140.00931,36.4409],"properties":{"City":"Mooka","State":"","Country":"Japan","Plant_Type":"KIMCO Factory","Product":"Farm Tractors, Collateral","Latitude":"36.4409","Longitude":"140.00931"}},{"type":"Point","coordinates":[139.74946,35.68696],"properties":{"City":"Tokyo","State":"","Country":"Japan","Plant_Type":"Headquarters","Product":"Komatsu International Manufacturing Co. Ltd,","Latitude":"35.68696","Longitude":"139.74946"}},{"type":"Point","coordinates":[139.74946,35.68696],"properties":{"City":"Tokyo","State":"","Country":"Japan","Plant_Type":"Solar Regional Office","Product":"","Latitude":"35.68696","Longitude":"139.74946"}},{"type":"Point","coordinates":[-101.00024,25.42139],"properties":{"City":"Saltillo","State":"","Country":"Mexico","Plant_Type":"Factory","Product":"Farm Tractors,Farm Implements","Latitude":"25.42139","Longitude":"-101.00024"}},{"type":"Point","coordinates":[-101.00024,25.42139],"properties":{"City":"Saltillo","State":"","Country":"Mexico","Plant_Type":"Foundry","Product":"","Latitude":"25.42139","Longitude":"-101.00024"}},{"type":"Point","coordinates":[-99.01912,19.32761],"properties":{"City":"Mexico City","State":"D.F.","Country":"Mexico","Plant_Type":"Headquarters","Product":"International Harvester Mexico","Latitude":"19.32761","Longitude":"-99.01912"}},{"type":"Point","coordinates":[-99.01912,19.32761],"properties":{"City":"Mexico City","State":"D.F.","Country":"Mexico","Plant_Type":"Headquarters","Product":"Maquinara Hidraulica Mexicana, S.A.","Latitude":"19.32761","Longitude":"-99.01912"}},{"type":"Point","coordinates":[-99.01912,19.32761],"properties":{"City":"Mexico City","State":"D.F.","Country":"Mexico","Plant_Type":"Factory","Product":"Excavators,Small Crawlers","Latitude":"19.32761","Longitude":"-99.01912"}},{"type":"Point","coordinates":[-99.01912,19.32761],"properties":{"City":"Mexico City","State":"D.F.","Country":"Mexico","Plant_Type":"Headquarters","Product":"Fabrica de Autotransport Mexicana S.A.","Latitude":"19.32761","Longitude":"-99.01912"}},{"type":"Point","coordinates":[-99.13421,19.43268],"properties":{"City":"Tiainepantia","State":"","Country":"Mexico","Plant_Type":"Parts Distribution Center","Product":"","Latitude":"19.43268","Longitude":"-99.13421"}},{"type":"Point","coordinates":[-99.46738,19.18039],"properties":{"City":"Santiago","State":"Tianguistenco","Country":"Mexico","Plant_Type":"Factory","Product":"(FAMSA) Trucks","Latitude":"19.18039","Longitude":"-99.46738"}},{"type":"Point","coordinates":[-96.13893,19.20033],"properties":{"City":"Veracruz","State":"","Country":"Mexico","Plant_Type":"Factory","Product":"Turbinas Solar S.a. de C.V.","Latitude":"19.20033","Longitude":"-96.13893"}},{"type":"Point","coordinates":[-7.61548,33.59646],"properties":{"City":"Casablanca","State":"","Country":"Morocco","Plant_Type":"Headquarters","Product":"Compagne Internationale de Machines Agricoleset de Genie Civil","Latitude":"33.59646","Longitude":"-7.61548"}},{"type":"Point","coordinates":[5.478,51.4366],"properties":{"City":"Eindhoven","State":"","Country":"Netherlands","Plant_Type":"Headquarters","Product":"Van Doomes Bedrijfswagenfabrie (DAF)","Latitude":"51.4366","Longitude":"5.478"}},{"type":"Point","coordinates":[5.478,51.4366],"properties":{"City":"Eindhoven","State":"","Country":"Netherlands","Plant_Type":"Factory","Product":"Trucks,Diesel Engines","Latitude":"51.4366","Longitude":"5.478"}},{"type":"Point","coordinates":[5.55722,51.4222],"properties":{"City":"Geidrop","State":"","Country":"Netherlands","Plant_Type":"Factory","Product":"DAF Trucks","Latitude":"51.4222","Longitude":"5.55722"}},{"type":"Point","coordinates":[4.53619,52.05332],"properties":{"City":"Curacao","State":"","Country":"Netherlands Antilles","Plant_Type":"","Product":"International Harvester overseas Finanz Co. N.V.","Latitude":"52.05332","Longitude":"4.53619"}},{"type":"Point","coordinates":[172.638,-43.5308],"properties":{"City":"Christschurch","State":"","Country":"New Zealand","Plant_Type":"Factory","Product":"Farm Tractors,Implements,Trucks,Wheel Loaders","Latitude":"-43.5308","Longitude":"172.638"}},{"type":"Point","coordinates":[172.638,-43.5308],"properties":{"City":"Christschurch","State":"","Country":"New Zealand","Plant_Type":"Headquarters","Product":"International Harvester New Zealand, Ltd.","Latitude":"-43.5308","Longitude":"172.638"}},{"type":"Point","coordinates":[172.638,-43.5308],"properties":{"City":"Christschurch","State":"","Country":"New Zealand","Plant_Type":"Headquarters","Product":"International Harvester Retail, Ltd.","Latitude":"-43.5308","Longitude":"172.638"}},{"type":"Point","coordinates":[172.638,-43.5308],"properties":{"City":"Christschurch","State":"","Country":"New Zealand","Plant_Type":"Headquarters","Product":"International Harvester Credit Company of New Zealand, Ltd.","Latitude":"-43.5308","Longitude":"172.638"}},{"type":"Point","coordinates":[172.638,-43.5308],"properties":{"City":"Christschurch","State":"","Country":"New Zealand","Plant_Type":"Parts Distribution Center","Product":"","Latitude":"-43.5308","Longitude":"172.638"}},{"type":"Point","coordinates":[174.76499,-36.85361],"properties":{"City":"Auckland","State":"","Country":"New Zealand","Plant_Type":"Parts Distribution Center","Product":"","Latitude":"-36.85361","Longitude":"174.76499"}},{"type":"Point","coordinates":[120.9748,14.58226],"properties":{"City":"Manila","State":"","Country":"Philippines","Plant_Type":"Headquarters","Product":"International Harvester MacLeod, Inc.","Latitude":"14.58226","Longitude":"120.9748"}},{"type":"Point","coordinates":[120.9748,14.58226],"properties":{"City":"Manila","State":"","Country":"Philippines","Plant_Type":"Parts Distribution Center","Product":"","Latitude":"14.58226","Longitude":"120.9748"}},{"type":"Point","coordinates":[121.08064,14.55982],"properties":{"City":"Pasig","State":"","Country":"Philippines","Plant_Type":"Factory","Product":"Trucks, Farm Tractors, Farm Implements","Latitude":"14.55982","Longitude":"121.08064"}},{"type":"Point","coordinates":[103.84998,1.28944],"properties":{"City":"","State":"","Country":"Singapore","Plant_Type":"Regional Sales Office","Product":"","Latitude":"1.28944","Longitude":"103.84998"}},{"type":"Point","coordinates":[103.84998,1.28944],"properties":{"City":"","State":"","Country":"Singapore","Plant_Type":"Parts Distribution Center","Product":"","Latitude":"1.28944","Longitude":"103.84998"}},{"type":"Point","coordinates":[103.84998,1.28944],"properties":{"City":"","State":"","Country":"Singapore","Plant_Type":"Solar Regional Office","Product":"","Latitude":"1.28944","Longitude":"103.84998"}},{"type":"Point","coordinates":[103.84998,1.28944],"properties":{"City":"","State":"","Country":"Singapore","Plant_Type":"Headquarters","Product":"International Harvester Singapore (Pty), Ltd.","Latitude":"1.28944","Longitude":"103.84998"}},{"type":"Point","coordinates":[28.20408,-26.13794],"properties":{"City":"Isando","State":"","Country":"South Africa","Plant_Type":"Headquarters","Product":"International Harvester Company of South Africa (PTY),Ltd.","Latitude":"-26.13794","Longitude":"28.20408"}},{"type":"Point","coordinates":[28.20408,-26.13794],"properties":{"City":"Isando","State":"","Country":"South Africa","Plant_Type":"Headquarters","Product":"International Harvester Credit Corporation of South Africa (PTY),Ltd.","Latitude":"-26.13794","Longitude":"28.20408"}},{"type":"Point","coordinates":[28.20408,-26.13794],"properties":{"City":"Isando","State":"","Country":"South Africa","Plant_Type":"Parts Distribution Center","Product":"","Latitude":"-26.13794","Longitude":"28.20408"}},{"type":"Point","coordinates":[28.04549,-26.20145],"properties":{"City":"Johannesburg","State":"","Country":"South Africa","Plant_Type":"Headquarters","Product":"Soilmaster Ltd.","Latitude":"-26.20145","Longitude":"28.04549"}},{"type":"Point","coordinates":[30.37962,-29.60351],"properties":{"City":"Pietermaritzburg","State":"","Country":"South Africa","Plant_Type":"Factory","Product":"Trucks,Farm Tractors","Latitude":"-29.60351","Longitude":"30.37962"}},{"type":"Point","coordinates":[-3.70034,40.41669],"properties":{"City":"Madrid","State":"","Country":"Spain","Plant_Type":"Subsidiary","Product":"International Harvester Spain, S.A.","Latitude":"40.41669","Longitude":"-3.70034"}},{"type":"Point","coordinates":[18.06449,59.33279],"properties":{"City":"Stockholm","State":"","Country":"Sweden","Plant_Type":"Sales Subsidiary","Product":"Aktiebolagel International Harvester Sweden","Latitude":"59.33279","Longitude":"18.06449"}},{"type":"Point","coordinates":[8.53803,47.36902],"properties":{"City":"Zurich","State":"","Country":"Switzerland","Plant_Type":"Finance Subsidiary","Product":"International Harvester Finanz AG","Latitude":"47.36902","Longitude":"8.53803"}},{"type":"Point","coordinates":[28.9748,41.013],"properties":{"City":"Istanbul","State":"","Country":"Turkey","Plant_Type":"Headquarters","Product":"Turk Otomotive Endustrilen","Latitude":"41.013","Longitude":"28.9748"}},{"type":"Point","coordinates":[35.79491,40.99186],"properties":{"City":"Tuzia","State":"","Country":"Turkey","Plant_Type":"Factory","Product":"Trucks, Farm Tractors","Latitude":"40.99186","Longitude":"35.79491"}},{"type":"Point","coordinates":[-84.3915,33.74855],"properties":{"City":"Atlanta","State":"Georgia","Country":"United States","Plant_Type":"Parts Distribution Center","Product":"","Latitude":"33.74855","Longitude":"-84.3915"}},{"type":"Point","coordinates":[-88.09577,42.47724],"properties":{"City":"Antioch","State":"Illinois","Country":"United States","Plant_Type":"Payline Testing and Proving Grounds","Product":"","Latitude":"42.47724","Longitude":"-88.09577"}},{"type":"Point","coordinates":[-76.61233,39.29044],"properties":{"City":"Baltimore","State":"Maryland","Country":"United States","Plant_Type":"Parts Distribution Center","Product":"","Latitude":"39.29044","Longitude":"-76.61233"}},{"type":"Point","coordinates":[-87.85303,41.86408],"properties":{"City":"Broadview","State":"Illinois","Country":"United States","Plant_Type":"Headquarters","Product":"Parts Distribution Division","Latitude":"41.86408","Longitude":"-87.85303"}},{"type":"Point","coordinates":[-87.85303,41.86408],"properties":{"City":"Broadview","State":"Illinois","Country":"United States","Plant_Type":"Parts Distribution Center","Product":"","Latitude":"41.86408","Longitude":"-87.85303"}},{"type":"Point","coordinates":[-88.11922,43.06079],"properties":{"City":"Brookfield","State":"Wisconsin","Country":"United States","Plant_Type":"Computer Center","Product":"","Latitude":"43.06079","Longitude":"-88.11922"}},{"type":"Point","coordinates":[-90.03509,40.55827],"properties":{"City":"Canton","State":"Illinois","Country":"United States","Plant_Type":"Factory","Product":"Farm Tillage Tools","Latitude":"40.55827","Longitude":"-90.03509"}},{"type":"Point","coordinates":[-87.6324,41.88323],"properties":{"City":"Chicago","State":"Illinois","Country":"United States","Plant_Type":"World Headquarters","Product":"International Harvester Company","Latitude":"41.88323","Longitude":"-87.6324"}},{"type":"Point","coordinates":[-87.6324,41.88323],"properties":{"City":"Chicago","State":"Illinois","Country":"United States","Plant_Type":"Headquarters","Product":"International Harvester Credit Corporation","Latitude":"41.88323","Longitude":"-87.6324"}},{"type":"Point","coordinates":[-87.6324,41.88323],"properties":{"City":"Chicago","State":"Illinois","Country":"United States","Plant_Type":"Headquarters","Product":"Harco Leasing Co.","Latitude":"41.88323","Longitude":"-87.6324"}},{"type":"Point","coordinates":[-87.6324,41.88323],"properties":{"City":"Chicago","State":"Illinois","Country":"United States","Plant_Type":"Headquarters","Product":"Southern Energy Co. Oil and Gas Drilling","Latitude":"41.88323","Longitude":"-87.6324"}},{"type":"Point","coordinates":[-87.6324,41.88323],"properties":{"City":"Chicago","State":"Illinois","Country":"United States","Plant_Type":"Headquarters","Product":"International Harvester Export Co.","Latitude":"41.88323","Longitude":"-87.6324"}},{"type":"Point","coordinates":[-87.6324,41.88323],"properties":{"City":"Chicago","State":"Illinois","Country":"United States","Plant_Type":"Headquarters","Product":"The Monarch Agency, Inc.","Latitude":"41.88323","Longitude":"-87.6324"}},{"type":"Point","coordinates":[-87.6324,41.88323],"properties":{"City":"Chicago","State":"Illinois","Country":"United States","Plant_Type":"Headquarters","Product":"International Harvester Overseas Services Co.","Latitude":"41.88323","Longitude":"-87.6324"}},{"type":"Point","coordinates":[-87.6324,41.88323],"properties":{"City":"Chicago","State":"Illinois","Country":"United States","Plant_Type":"Headquarters","Product":"International Harvester Domestic International Sales Co. (DISC)","Latitude":"41.88323","Longitude":"-87.6324"}},{"type":"Point","coordinates":[-87.6324,41.88323],"properties":{"City":"Chicago","State":"Illinois","Country":"United States","Plant_Type":"Factory","Product":"Components","Latitude":"41.88323","Longitude":"-87.6324"}},{"type":"Point","coordinates":[-82.99629,39.96276],"properties":{"City":"Columbus","State":"Ohio","Country":"United States","Plant_Type":"Parts Distribution Center","Product":"","Latitude":"39.96276","Longitude":"-82.99629"}},{"type":"Point","coordinates":[-96.79621,32.77798],"properties":{"City":"Dallas","State":"Texas","Country":"United States","Plant_Type":"Parts Distribution Center","Product":"","Latitude":"32.77798","Longitude":"-96.79621"}},{"type":"Point","coordinates":[-96.79621,32.77798],"properties":{"City":"Dallas","State":"Texas","Country":"United States","Plant_Type":"Solar Product Support Center","Product":"","Latitude":"32.77798","Longitude":"-96.79621"}},{"type":"Point","coordinates":[-90.44441,41.50056],"properties":{"City":"East Moline","State":"Illinois","Country":"United States","Plant_Type":"Factory","Product":"Combines,Planters,Control Centers","Latitude":"41.50056","Longitude":"-90.44441"}},{"type":"Point","coordinates":[-96.78464,46.87696],"properties":{"City":"Fargo","State":"North Dakota","Country":"United States","Plant_Type":"Headquarters","Product":"Steiner Tractor Co.","Latitude":"46.87696","Longitude":"-96.78464"}},{"type":"Point","coordinates":[-96.78464,46.87696],"properties":{"City":"Fargo","State":"North Dakota","Country":"United States","Plant_Type":"Factory","Product":"Farm Tractors","Latitude":"46.87696","Longitude":"-96.78464"}},{"type":"Point","coordinates":[-85.13749,41.07747],"properties":{"City":"Fort Wayne","State":"Indiana","Country":"United States","Plant_Type":"Truck Engineering and Design Center","Product":"","Latitude":"41.07747","Longitude":"-85.13749"}},{"type":"Point","coordinates":[-85.13749,41.07747],"properties":{"City":"Fort Wayne","State":"Indiana","Country":"United States","Plant_Type":"Factory","Product":"Trucks, Scout Vehicles","Latitude":"41.07747","Longitude":"-85.13749"}},{"type":"Point","coordinates":[-85.13749,41.07747],"properties":{"City":"Fort Wayne","State":"Indiana","Country":"United States","Plant_Type":"Parts Distribution Center","Product":"","Latitude":"41.07747","Longitude":"-85.13749"}},{"type":"Point","coordinates":[-85.13749,41.07747],"properties":{"City":"Fort Wayne","State":"Indiana","Country":"United States","Plant_Type":"Materials Management Center","Product":"","Latitude":"41.07747","Longitude":"-85.13749"}},{"type":"Point","coordinates":[-85.13749,41.07747],"properties":{"City":"Fort Wayne","State":"Indiana","Country":"United States","Plant_Type":"Truck Proving Ground","Product":"","Latitude":"41.07747","Longitude":"-85.13749"}},{"type":"Point","coordinates":[-118.30914,33.88376],"properties":{"City":"Gardena","State":"California","Country":"United States","Plant_Type":"Superior Gear Subsidiary","Product":"","Latitude":"33.88376","Longitude":"-118.30914"}},{"type":"Point","coordinates":[-89.09154,30.36977],"properties":{"City":"Gulfport","State":"Mississippi","Country":"United States","Plant_Type":"Playline Products Distribution, Co.","Product":"","Latitude":"30.36977","Longitude":"-89.09154"}},{"type":"Point","coordinates":[-89.09154,30.36977],"properties":{"City":"Gulfport","State":"Mississippi","Country":"United States","Plant_Type":"Factory","Product":"Industrial Tractors","Latitude":"30.36977","Longitude":"-89.09154"}},{"type":"Point","coordinates":[-87.92724,41.80369],"properties":{"City":"Hinsdale","State":"Illinois","Country":"United States","Plant_Type":"Agricultural Equipment Research and Engineering Center","Product":"","Latitude":"41.80369","Longitude":"-87.92724"}},{"type":"Point","coordinates":[-87.92724,41.80369],"properties":{"City":"Hinsdale","State":"Illinois","Country":"United States","Plant_Type":"Computer Center","Product":"","Latitude":"41.80369","Longitude":"-87.92724"}},{"type":"Point","coordinates":[-87.92724,41.80369],"properties":{"City":"Hinsdale","State":"Illinois","Country":"United States","Plant_Type":"Manufacturing Research Center","Product":"","Latitude":"41.80369","Longitude":"-87.92724"}},{"type":"Point","coordinates":[-87.92724,41.80369],"properties":{"City":"Hinsdale","State":"Illinois","Country":"United States","Plant_Type":"Manufacturing and Facility Planning Center","Product":"","Latitude":"41.80369","Longitude":"-87.92724"}},{"type":"Point","coordinates":[-87.92724,41.80369],"properties":{"City":"Hinsdale","State":"Illinois","Country":"United States","Plant_Type":"Industrial Design Center","Product":"","Latitude":"41.80369","Longitude":"-87.92724"}},{"type":"Point","coordinates":[-86.15621,39.76845],"properties":{"City":"Indianapolis","State":" Indiana","Country":"United States","Plant_Type":"Factory","Product":"Gas and Diesel Engines","Latitude":"39.76845","Longitude":"-86.15621"}},{"type":"Point","coordinates":[-86.15621,39.76845],"properties":{"City":"Indianapolis","State":" Indiana","Country":"United States","Plant_Type":"Foundry","Product":"","Latitude":"39.76845","Longitude":"-86.15621"}},{"type":"Point","coordinates":[-94.57856,39.09979],"properties":{"City":"Kansas City","State":"Kansas","Country":"United States","Plant_Type":"Parts Distribution Center","Product":"","Latitude":"39.09979","Longitude":"-94.57856"}},{"type":"Point","coordinates":[-87.95334,42.283],"properties":{"City":"Libertyville","State":" Illinois","Country":"United States","Plant_Type":"Factory","Product":"Front End Loaders, Scrapers, Off-Road Trucks","Latitude":"42.283","Longitude":"-87.95334"}},{"type":"Point","coordinates":[-85.65353,38.19937],"properties":{"City":"Louisville","State":" Kentucky","Country":"United States","Plant_Type":"Factory","Product":"Outdoor Power Products,Transmissions,Components","Latitude":"38.19937","Longitude":"-85.65353"}},{"type":"Point","coordinates":[-85.65353,38.19937],"properties":{"City":"Louisville","State":" Kentucky","Country":"United States","Plant_Type":"Foundry","Product":"","Latitude":"38.19937","Longitude":"-85.65353"}},{"type":"Point","coordinates":[-87.85661,41.89343],"properties":{"City":"Melrose Park","State":"Illinois","Country":"United States","Plant_Type":"Factory","Product":"Crawler Tractors,Engines","Latitude":"41.89343","Longitude":"-87.85661"}},{"type":"Point","coordinates":[-87.85661,41.89343],"properties":{"City":"Melrose Park","State":"Illinois","Country":"United States","Plant_Type":"Payline Engineering Center","Product":"","Latitude":"41.89343","Longitude":"-87.85661"}},{"type":"Point","coordinates":[-87.85661,41.89343],"properties":{"City":"Melrose Park","State":"Illinois","Country":"United States","Plant_Type":"Engine Engineering Center","Product":"","Latitude":"41.89343","Longitude":"-87.85661"}},{"type":"Point","coordinates":[-90.05214,35.14338],"properties":{"City":"Memphis","State":"Tennessee","Country":"United States","Plant_Type":"Factory","Product":"Cotton Harvesting Equipment,Farm Implements,Hay Tools","Latitude":"35.14338","Longitude":"-90.05214"}},{"type":"Point","coordinates":[-90.05214,35.14338],"properties":{"City":"Memphis","State":"Tennessee","Country":"United States","Plant_Type":"Nodular Foundry","Product":"","Latitude":"35.14338","Longitude":"-90.05214"}},{"type":"Point","coordinates":[-90.05214,35.14338],"properties":{"City":"Memphis","State":"Tennessee","Country":"United States","Plant_Type":"Parts Distribution Center","Product":"","Latitude":"35.14338","Longitude":"-90.05214"}},{"type":"Point","coordinates":[-87.90942,43.04107],"properties":{"City":"Milwaukee","State":"Wisconsin","Country":"United States","Plant_Type":"Headquarters","Product":"Harco Holdings Inc. Insurance Company","Latitude":"43.04107","Longitude":"-87.90942"}},{"type":"Point","coordinates":[-87.90942,43.04107],"properties":{"City":"Milwaukee","State":"Wisconsin","Country":"United States","Plant_Type":"Association Life Insurance Co. Inc.","Product":"","Latitude":"43.04107","Longitude":"-87.90942"}},{"type":"Point","coordinates":[-87.90942,43.04107],"properties":{"City":"Milwaukee","State":"Wisconsin","Country":"United States","Plant_Type":"Harco Insurance Service Inc.","Product":"","Latitude":"43.04107","Longitude":"-87.90942"}},{"type":"Point","coordinates":[-87.90942,43.04107],"properties":{"City":"Milwaukee","State":"Wisconsin","Country":"United States","Plant_Type":"Harco National Insurance Service Inc.","Product":"","Latitude":"43.04107","Longitude":"-87.90942"}},{"type":"Point","coordinates":[-80.1947,25.77508],"properties":{"City":"Miami","State":"Florida","Country":"United States","Plant_Type":"Latin American Regional Sales Office","Product":"","Latitude":"25.77508","Longitude":"-80.1947"}},{"type":"Point","coordinates":[-112.07258,33.4482],"properties":{"City":"Phoenix","State":"Arizona","Country":"United States","Plant_Type":"Proving Ground","Product":"Trucks, Agricultural Equipment, Payline","Latitude":"33.4482","Longitude":"-112.07258"}},{"type":"Point","coordinates":[-122.34315,37.93786],"properties":{"City":"Richmond","State":"California","Country":"United States","Plant_Type":"Parts Distribution Center","Product":"","Latitude":"37.93786","Longitude":"-122.34315"}},{"type":"Point","coordinates":[-90.58357,41.47235],"properties":{"City":"Rock Island","State":"Illinois","Country":"United States","Plant_Type":"Factory","Product":"Farm Tractors","Latitude":"41.47235","Longitude":"-90.58357"}},{"type":"Point","coordinates":[-88.0697,42.02625],"properties":{"City":"Schaumburg","State":"Illinois","Country":"United States","Plant_Type":"Headquarters","Product":"Payline Group","Latitude":"42.02625","Longitude":"-88.0697"}},{"type":"Point","coordinates":[-88.0697,42.02625],"properties":{"City":"Schaumburg","State":"Illinois","Country":"United States","Plant_Type":"Engineering Center","Product":"Industrial Equipment","Latitude":"42.02625","Longitude":"-88.0697"}},{"type":"Point","coordinates":[-117.16382,32.71576],"properties":{"City":"San Diego","State":"California","Country":"United States","Plant_Type":"Headquarters","Product":"Solar Turbines International Group","Latitude":"32.71576","Longitude":"-117.16382"}},{"type":"Point","coordinates":[-117.16382,32.71576],"properties":{"City":"San Diego","State":"California","Country":"United States","Plant_Type":"Factory","Product":"Turbines","Latitude":"32.71576","Longitude":"-117.16382"}},{"type":"Point","coordinates":[-117.16382,32.71576],"properties":{"City":"San Diego","State":"California","Country":"United States","Plant_Type":"Factory","Product":"Drive Packages","Latitude":"32.71576","Longitude":"-117.16382"}},{"type":"Point","coordinates":[-117.16382,32.71576],"properties":{"City":"San Diego","State":"California","Country":"United States","Plant_Type":"Factory","Product":"Components","Latitude":"32.71576","Longitude":"-117.16382"}},{"type":"Point","coordinates":[-117.16382,32.71576],"properties":{"City":"San Diego","State":"California","Country":"United States","Plant_Type":"Headquarters","Product":"Solar Turbines International Co.","Latitude":"32.71576","Longitude":"-117.16382"}},{"type":"Point","coordinates":[-117.16382,32.71576],"properties":{"City":"San Diego","State":"California","Country":"United States","Plant_Type":"Headquarters","Product":"Solar Turbines Ltd.","Latitude":"32.71576","Longitude":"-117.16382"}},{"type":"Point","coordinates":[-117.16382,32.71576],"properties":{"City":"San Diego","State":"California","Country":"United States","Plant_Type":"Product Support Center","Product":"","Latitude":"32.71576","Longitude":"-117.16382"}},{"type":"Point","coordinates":[-93.09428,44.94372],"properties":{"City":"St. Paul","State":"Minnesota","Country":"United States","Plant_Type":"Parts Distribution Center","Product":"","Latitude":"44.94372","Longitude":"-93.09428"}},{"type":"Point","coordinates":[-80.74941,39.97075],"properties":{"City":"Shadyside","State":" Ohio","Country":"United States","Plant_Type":"Factory","Product":"Sheet Metal Stampings for Trucks","Latitude":"39.97075","Longitude":"-80.74941"}},{"type":"Point","coordinates":[-83.81014,39.92458],"properties":{"City":"Springfield","State":"Ohio","Country":"United States","Plant_Type":"Factory","Product":"Trucks,Truck Bodies","Latitude":"39.92458","Longitude":"-83.81014"}},{"type":"Point","coordinates":[-93.29236,37.21552],"properties":{"City":"Springfield","State":"Missouri","Country":"United States","Plant_Type":"Payline Remanufacturing Center","Product":"Engines,Components","Latitude":"37.21552","Longitude":"-93.29236"}},{"type":"Point","coordinates":[-95.3779,35.95979],"properties":{"City":"Wagoner","State":"Oklahoma","Country":"United States","Plant_Type":"Factory","Product":"Heavy Trucks","Latitude":"35.95979","Longitude":"-95.3779"}},{"type":"Point","coordinates":[-88.23509,43.0128],"properties":{"City":"Waukesha","State":"Wisconsin","Country":"United States","Plant_Type":"Foundry","Product":"","Latitude":"43.0128","Longitude":"-88.23509"}},{"type":"Point","coordinates":[-88.2049,41.88466],"properties":{"City":"West Chicago","State":"Illinois","Country":"United States","Plant_Type":"Parts Distribution Center","Product":"","Latitude":"41.88466","Longitude":"-88.2049"}},{"type":"Point","coordinates":[-87.97532,41.79526],"properties":{"City":"Westmont","State":"Illinois","Country":"United States","Plant_Type":"Printing and Distribution Center","Product":"","Latitude":"41.79526","Longitude":"-87.97532"}},{"type":"Point","coordinates":[-67.97962,10.1825],"properties":{"City":"Caracas","State":"","Country":"Venezuela","Plant_Type":"Headquarters","Product":"Indistria zvenezolana de Maquinanas S.A.","Latitude":"10.1825","Longitude":"-67.97962"}},{"type":"Point","coordinates":[-67.97962,10.1825],"properties":{"City":"Caracas","State":"","Country":"Venezuela","Plant_Type":"Factory","Product":"Trucks","Latitude":"10.1825","Longitude":"-67.97962"}}]}},"arcs":[],"bbox":[-123.06924,-43.5308,174.76499,59.33279]}
